timestamp,latitude,longitude,altitude,northing,easting,down,utm_zone,velocity_north,velocity_east,velocity_down,roll,pitch,yaw
1446206199955149,51.751188889,-1.2612645974,108.280052,5734795.685425566,620021.4778138875,-108.280052,30U,-5.613,-4.167,0.298,0.01282310000045019,-0.06746450000069215,-0.9233687071788628
1446206200061791,51.7511838293,-1.2612705824,108.244881,5734795.112907428,620021.0781243668,-108.244881,30U,-5.606,-4.198,0.296,0.014876633438687732,-0.0655421490590342,-0.9225349349620262
1446206200168453,51.7511787532,-1.2612765121,108.202713,5734794.538656537,620020.6822952087,-108.202713,30U,-5.607,-4.218,0.309,0.014655410760373251,-0.06168081986550286,-0.9229603013992599
1446206200275260,51.7511736759,-1.2612824888,108.165558,5734793.964194895,620020.2832250517,-108.165558,30U,-5.623,-4.222,0.235,0.013105023732656538,-0.06055019427753597,-0.9231253436777727
1446206200378221,51.7511686089,-1.2612885639,108.139565,5734793.390716798,620019.8773356194,-108.139565,30U,-5.63,-4.24,0.238,0.01099401287238221,-0.06438353096073532,-0.9232342700324366
1446206200469644,51.7511635395,-1.2612946801,108.115158,5734792.816904211,620019.4686156037,-108.115158,30U,-5.651,-4.218,0.205,0.015244777134074298,-0.06829480102119119,-0.9230478794956336
1446206200561063,51.7511584507,-1.2613007893,108.094566,5734792.240945779,620019.0604300837,-108.094566,30U,-5.662,-4.227,0.228,0.018344617574493592,-0.07113710329692541,-0.9220618161855585
1446206200652428,51.75115337,-1.2613069437,108.068001,5734791.665813778,620018.6491031486,-108.068001,30U,-5.649,-4.263,0.308,0.020547715262887522,-0.06928828682038522,-0.9208332626045058
1446206200743792,51.7511482874,-1.2613131252,108.034691,5734791.090425929,620018.2359106258,-108.034691,30U,-5.658,-4.279,0.349,0.018508858813202134,-0.0657966367826312,-0.9187784533445478
1446206200848443,51.7511432045,-1.261319334,108.000053,5734790.514959834,620017.8208344682,-108.000053,30U,-5.662,-4.294,0.315,0.01834254538346994,-0.06314839595425824,-0.9168045280072691
1446206200954991,51.7511381175,-1.2613255618,107.972008,5734789.939006566,620017.4044576427,-107.972008,30U,-5.657,-4.308,0.246,0.017535300000074132,-0.06438950000073977,-0.9154324071797298
1446206201046451,51.7511330389,-1.261331806,107.949242,5734789.363960483,620016.9869264707,-107.949242,30U,-5.642,-4.311,0.226,0.016196081718167697,-0.06678072316698917,-0.9146376888568977
1446206201137909,51.7511279802,-1.2613380458,107.92453,5734788.79113468,620016.5696461481,-107.92453,30U,-5.614,-4.306,0.258,0.01469030539339842,-0.06675995777187436,-0.9145315316712953
1446206201241838,51.7511229436,-1.2613442555,107.899132,5734788.220816095,620016.1543847395,-107.899132,30U,-5.598,-4.266,0.268,0.014460898040680603,-0.06689648768850136,-0.9146838543881546
1446206201348644,51.7511179303,-1.2613504168,107.871193,5734787.65316829,620015.74240219,-107.871193,30U,-5.558,-4.245,0.277,0.014269517502826217,-0.06751741180372134,-0.9147176154158678
1446206201455281,51.7511129488,-1.2613565487,107.843773,5734787.089105248,620015.332364527,-107.843773,30U,-5.527,-4.229,0.267,0.01338332533594233,-0.0684466947849895,-0.915124931289713
1446206201561915,51.7511079858,-1.2613626544,107.818687,5734786.527142668,620014.9240861351,-107.818687,30U,-5.522,-4.203,0.243,0.015547211265301075,-0.07071968267007908,-0.9157582375438273
1446206201668668,51.75110302,-1.2613687222,107.792839,5734785.964931106,620014.5184310533,-107.792839,30U,-5.519,-4.19,0.282,0.016088732383674472,-0.07381216629462849,-0.9163097231238916
1446206201775393,51.7510980618,-1.2613747865,107.762794,5734785.403570502,620014.1129973123,-107.762794,30U,-5.521,-4.188,0.302,0.019998628952039504,-0.07440054530590107,-0.9169057157221283
1446206201881993,51.7510930914,-1.2613808412,107.730835,5734784.840869014,620013.7082584423,-107.730835,30U,-5.529,-4.195,0.315,0.023415254873941877,-0.07382443894552834,-0.9171438639542661
1446206201980279,51.7510881091,-1.2613869074,107.697365,5734784.276825285,620013.3027572584,-107.697365,30U,-5.551,-4.196,0.332,0.026798799999734873,-0.07308200000043488,-0.9172392071793068
1446206202060273,51.7510831201,-1.2613929884,107.661461,5734783.712012155,620012.8962521971,-107.661461,30U,-5.539,-4.219,0.339,0.02782621029243469,-0.0730569615261844,-0.9169657374868938
1446206202140268,51.751078131,-1.2613990733,107.626953,5734783.147181524,620012.4894781166,-107.626953,30U,-5.557,-4.198,0.345,0.03272548420205845,-0.07153204321732276,-0.9170807899001086
1446206202241882,51.7510731405,-1.2614051512,107.595161,5734782.582206757,620012.0831908173,-107.595161,30U,-5.54,-4.211,0.283,0.03155893225585902,-0.06758692289221419,-0.9167405349028701
1446206202348484,51.7510681752,-1.2614112612,107.563629,5734782.019981604,620011.6746209739,-107.563629,30U,-5.509,-4.224,0.341,0.0277462713276641,-0.06303313726406987,-0.9172672632667476
1446206202455192,51.7510632239,-1.2614173593,107.53167,5734781.459332954,620011.2668353022,-107.53167,30U,-5.518,-4.183,0.289,0.02664134500083849,-0.06041757003252915,-0.9179283943783566
1446206202560948,51.7510582608,-1.2614233846,107.507133,5734780.897491884,620010.8641057134,-107.507133,30U,-5.51,-4.162,0.208,0.024755934961599304,-0.06250379408455915,-0.9177170659174665
1446206202652314,51.7510533214,-1.2614294167,107.487839,5734780.338275247,620010.4608438478,-107.487839,30U,-5.489,-4.161,0.185,0.026368907250053794,-0.0668230074053849,-0.9188250460189592
1446206202743680,51.7510483939,-1.2614354303,107.469048,5734779.7804124355,620010.058827277,-107.469048,30U,-5.479,-4.146,0.202,0.02716413454754778,-0.07063043582077437,-0.920146403027161
1446206202848548,51.7510434695,-1.2614414156,107.444481,5734779.22294096,620009.6587557573,-107.444481,30U,-5.474,-4.127,0.275,0.028815775783677448,-0.0726364617406025,-0.9210228845346432
1446206202955343,51.7510385561,-1.2614473807,107.415176,5734778.666726021,620009.2600492589,-107.415176,30U,-5.464,-4.111,0.308,0.030212499999319326,-0.07311259999950812,-0.9219909071790919
1446206203061866,51.7510336505,-1.2614533264,107.383942,5734778.111410443,620008.8626610462,-107.383942,30U,-5.456,-4.097,0.314,0.031078346269700772,-0.07382022245171235,-0.9226972869394154
1446206203166515,51.751028753,-1.2614592466,107.353477,5734777.557037623,620008.4670113669,-107.353477,30U,-5.445,-4.08,0.301,0.03472873302379397,-0.07480133253656886,-0.9233634249817696
1446206203258054,51.7510238604,-1.2614651275,107.322395,5734777.003274405,620008.0740612268,-107.322395,30U,-5.44,-4.042,0.312,0.03929340943840289,-0.07595345115788767,-0.9242349235812188
1446206203349593,51.7510189843,-1.2614709806,107.29187,5734776.451391862,620007.6829861094,-107.29187,30U,-5.406,-4.045,0.31,0.03885896567986538,-0.07526762871976155,-0.9247596852958776
1446206203455390,51.7510141502,-1.2614768492,107.260719,5734775.904154508,620007.2907297089,-107.260719,30U,-5.355,-4.051,0.315,0.03626470979639213,-0.07490965993437629,-0.925700664590656
1446206203561182,51.7510093325,-1.2614826506,107.229919,5734775.358851531,620006.9030681192,-107.229919,30U,-5.373,-3.957,0.337,0.04376225117641498,-0.07383176200498517,-0.9266676143271083
1446206203652634,51.7510045125,-1.2614883486,107.196274,5734774.813462931,620006.5225495576,-107.196274,30U,-5.328,-3.943,0.307,0.04315466082341086,-0.07028712767544215,-0.9270372816076654
1446206203744086,51.7509997602,-1.2614940852,107.167557,5734774.275539515,620006.1391871527,-107.167557,30U,-5.258,-3.968,0.294,0.039616778575841186,-0.06662141716788123,-0.9287438422554295
1446206203848788,51.7509950455,-1.2614998091,107.138206,5734773.741818376,620005.756601594,-107.138206,30U,-5.242,-3.931,0.279,0.029998014469941124,-0.06360433843766639,-0.9298991017817422
1446206203955384,51.7509903297,-1.2615054415,107.114662,5734773.208125481,620005.3803345078,-107.114662,30U,-5.259,-3.84,0.202,0.03266770000000839,-0.06831629999913456,-0.9302774071802236
1446206204061923,51.7509856116,-1.2615109688,107.091965,5734772.674349757,620005.0113277963,-107.091965,30U,-5.224,-3.81,0.236,0.037224276254292345,-0.07391511768913134,-0.9316713413910631
1446206204166565,51.7509809383,-1.2615164904,107.072037,5734772.145565479,620004.6425956868,-107.072037,30U,-5.177,-3.811,0.174,0.04256915418950006,-0.07904389972329327,-0.9341446839497002
1446206204257929,51.7509763047,-1.2615219795,107.05117,5734771.621249584,620004.2760015258,-107.05117,30U,-5.138,-3.779,0.264,0.043355604472277195,-0.07919724945122557,-0.9365952010435107
1446206204349292,51.7509717033,-1.2615274484,107.017418,5734771.100547789,620003.9107162072,-107.017418,30U,-5.113,-3.758,0.362,0.0366564594207231,-0.07207313093030031,-0.9380878098713646
1446206204455003,51.7509671162,-1.2615328512,106.981827,5734770.58154502,620003.5499553554,-106.981827,30U,-5.096,-3.697,0.333,0.03844528596206717,-0.06774482093595986,-0.9388758434749513
1446206204560733,51.7509625428,-1.2615381618,106.948624,5734770.064217494,620003.1955220741,-106.948624,30U,-5.076,-3.646,0.338,0.04320591424076474,-0.06494888241899768,-0.9403624445182367
1446206204652406,51.7509579914,-1.2615434065,106.92218,5734769.54944495,620002.8455790479,-106.92218,30U,-5.048,-3.616,0.193,0.046491146425397485,-0.06332822554183977,-0.941727753269855
1446206204744080,51.7509534864,-1.2615486538,106.906197,5734769.039828121,620002.4953334976,-106.906197,30U,-4.978,-3.635,0.157,0.044276167741478495,-0.06728405131166369,-0.9441379801080895
1446206204848788,51.7509490231,-1.2615538776,106.887413,5734768.534887278,620002.1465993938,-106.887413,30U,-4.973,-3.564,0.214,0.043150866344972,-0.07041814889487222,-0.9466021351575511
1446206204955359,51.7509445667,-1.2615589745,106.865585,5734768.03092256,620001.8066060054,-106.865585,30U,-4.941,-3.502,0.202,0.04147600000026874,-0.07305599999986487,-0.9476426071802136
1446206205062012,51.7509401587,-1.2615640265,106.846832,5734767.532414114,620001.4695834118,-106.846832,30U,-4.878,-3.473,0.189,0.043510694349324266,-0.07691562221775454,-0.9499034550873517
1446206205166761,51.7509357919,-1.2615690147,106.824013,5734767.038592352,620001.1368552411,-106.824013,30U,-4.839,-3.419,0.261,0.046416240374088424,-0.07713389168203758,-0.9525697778706053
1446206205258190,51.7509314655,-1.261573924,106.796852,5734766.549393149,620000.8094658728,-106.796852,30U,-4.787,-3.365,0.281,0.04880507275516718,-0.07630494502482078,-0.95582320585403
1446206205349619,51.7509271898,-1.261578758,106.768036,5734766.065956004,620000.4871395213,-106.768036,30U,-4.729,-3.315,0.302,0.04785705540447213,-0.07381540131999292,-0.9599982958559974
1446206205455174,51.7509229689,-1.2615835203,106.738724,5734765.588730938,620000.169616839,-106.738724,30U,-4.669,-3.256,0.262,0.04518731683908489,-0.07090378949242523,-0.9650966031062426
1446206205561684,51.7509187934,-1.2615881589,106.715332,5734765.116758164,619999.860511965,-106.715332,30U,-4.622,-3.151,0.197,0.04457360614173814,-0.07029188007085965,-0.9695695966334794
1446206205668390,51.7509146664,-1.2615926626,106.693108,5734764.650400843,619999.5605897506,-106.693108,30U,-4.557,-3.069,0.221,0.04293271686509371,-0.06898217448455436,-0.9734021704926039
1446206205770086,51.7509106104,-1.2615970511,106.671944,5734764.192128704,619999.2684307976,-106.671944,30U,-4.47,-2.992,0.201,0.04413005548205652,-0.06904205024205613,-0.9777339312926001
1446206205850070,51.7509066302,-1.2616013182,106.652946,5734763.742485736,619998.9844503326,-106.652946,30U,-4.385,-2.907,0.187,0.0447064784538822,-0.0694184996940629,-0.9822797363800505
1446206205930053,51.7509027312,-1.2616054687,106.633896,5734763.302064551,619998.7083027323,-106.633896,30U,-4.288,-2.834,0.191,0.04295489999988656,-0.06909239999948183,-0.9868652071796931
1446206206028407,51.7508989234,-1.2616095186,106.616463,5734762.871950889,619998.4388571208,-106.616463,30U,-4.189,-2.757,0.153,0.040064683437562115,-0.06952460601029883,-0.9911923551704696
1446206206135110,51.7508951986,-1.2616134466,106.601563,5734762.451267904,619998.1776054349,-106.601563,30U,-4.105,-2.669,0.172,0.03766224217627217,-0.07043418705174537,-0.9950330281880999
1446206206241846,51.7508915464,-1.2616172347,106.584023,5734762.038888656,619997.9258176687,-106.584023,30U,-4.022,-2.568,0.164,0.03750932767760479,-0.07056671503486261,-0.9975799824740902
1446206206348590,51.7508879732,-1.2616209002,106.568077,5734761.635496405,619997.6822827558,-106.568077,30U,-3.924,-2.505,0.165,0.03620415367464135,-0.07193550234112649,-0.9987965631139275
1446206206455365,51.7508844926,-1.261624481,106.551811,5734761.242541204,619997.4443486582,-106.551811,30U,-3.828,-2.437,0.159,0.03794949748268164,-0.07319823846436013,-0.9995440990086126
1446206206562135,51.7508810909,-1.2616279645,106.535751,5734760.858520257,619997.2129213877,-106.535751,30U,-3.743,-2.383,0.169,0.039383187115636965,-0.07243612014306162,-0.9995037258551334
1446206206668788,51.7508777567,-1.2616313797,106.519997,5734760.482118101,619996.9860294804,-106.519997,30U,-3.678,-2.334,0.136,0.041678987839841544,-0.0710488183422047,-0.9986054814794155
1446206206772580,51.7508744833,-1.2616347433,106.508026,5734760.1125621805,619996.7625380034,-106.508026,30U,-3.611,-2.315,0.119,0.043006559017795966,-0.07321179160748165,-0.9969604602893559
1446206206863972,51.7508712655,-1.2616380861,106.495201,5734759.749223554,619996.5403348139,-106.495201,30U,-3.547,-2.303,0.123,0.038809514522658364,-0.07996391613371602,-0.9948291869994599
1446206206955363,51.7508681212,-1.2616414141,106.47921,5734759.394082941,619996.3189583274,-106.47921,30U,-3.456,-2.294,0.201,0.0305036000007809,-0.08651759999998165,-0.9911764071790509
1446206207061883,51.75086505,-1.2616446658,106.457916,5734759.047197035,619996.102654558,-106.457916,30U,-3.405,-2.195,0.221,0.037727339133355166,-0.08283472456843578,-0.9861296111382712
1446206207166495,51.7508620031,-1.2616477806,106.440155,5734758.703238664,619995.8957356801,-106.440155,30U,-3.368,-2.124,0.104,0.0498129890430818,-0.07527453197517339,-0.9802834996402416
1446206207257752,51.7508590257,-1.2616508686,106.434685,5734758.367053223,619995.6904823956,-106.434685,30U,-3.258,-2.144,0.038,0.0585863570375817,-0.0764038326662518,-0.9730171254842719
1446206207349010,51.7508561571,-1.2616539953,106.428589,5734758.04290336,619995.4822694951,-106.428589,30U,-3.134,-2.172,0.094,0.05894844105627043,-0.07994976507395403,-0.9634436348456682
1446206207440435,51.7508533864,-1.2616571543,106.411827,5734757.729587454,619995.2715676229,-106.411827,30U,-3.039,-2.197,0.238,0.048116531837576686,-0.08007978287916252,-0.9525403261184108
1446206207531871,51.7508507095,-1.2616603408,106.379982,5734757.42665746,619995.058718959,-106.379982,30U,-2.916,-2.207,0.351,0.03911963556562179,-0.07667260304918175,-0.9404692287395527
1446206207634911,51.7508480972,-1.2616634724,106.347343,5734757.131001711,619994.849488444,-106.347343,30U,-2.913,-2.109,0.271,0.04313643190308067,-0.06921458152767626,-0.9276969701261079
1446206207741820,51.7508454865,-1.2616664483,106.336823,5734756.835780041,619994.6510006422,-106.336823,30U,-2.891,-2.036,-0.035,0.04941191880203981,-0.07042732742781947,-0.9114831968099095
1446206207848435,51.7508429675,-1.2616694269,106.343414,5734756.550751549,619994.4520834037,-106.343414,30U,-2.715,-2.095,-0.059,0.05647715055453863,-0.07634208125227214,-0.8955702567967307
1446206207955008,51.7508405859,-1.261672473,106.344398,5734756.280891752,619994.2481428733,-106.344398,30U,-2.61,-2.089,0.046,0.06941759999952277,-0.07464199999972963,-0.880483907179956
1446206208061686,51.7508382738,-1.2616754703,106.335403,5734756.018841074,619994.0473864672,-106.335403,30U,-2.535,-2.061,0.129,0.07437659906044182,-0.06900895891288472,-0.860441009475112
1446206208168397,51.7508360627,-1.2616784926,106.320816,5734755.767981104,619993.8446367531,-106.320816,30U,-2.402,-2.124,0.17,0.07140427104348701,-0.06372403693305789,-0.835569043687918
1446206208275338,51.7508339564,-1.2616816639,106.300499,5734755.528530434,619993.6313247298,-106.300499,30U,-2.305,-2.244,0.264,0.054367654936761,-0.0574372893617511,-0.80780947253422
1446206208378405,51.7508319136,-1.261684929,106.274979,5734755.295987058,619993.4113699638,-106.274979,30U,-2.28,-2.26,0.189,0.049435409364720656,-0.04833552019425199,-0.7783277177390991
1446206208469851,51.7508298482,-1.261688215,106.262024,5734755.060896049,619993.1900324827,-106.262024,30U,-2.321,-2.278,0.076,0.05517936576250133,-0.04354285026579241,-0.749457391485447
1446206208561292,51.7508277925,-1.261691572,106.260582,5734754.826766952,619992.963768593,-106.260582,30U,-2.251,-2.359,-0.028,0.06710488510104155,-0.04597752783341585,-0.72063879255491
1446206208652656,51.7508258265,-1.2616950777,106.258347,5734754.60236844,619992.7270031217,-106.258347,30U,-2.123,-2.476,0.112,0.07397901966465405,-0.048965534647441473,-0.690716941523831
1446206208744021,51.7508239743,-1.2616987012,106.247849,5734754.390431412,619992.4818050233,-106.247849,30U,-2.029,-2.518,0.074,0.07326337313451761,-0.04651208114886567,-0.6578551695538714
1446206208848793,51.7508221784,-1.2617023747,106.245552,5734754.184673053,619992.2330065033,-106.245552,30U,-1.98,-2.559,-0.016,0.07387524879268882,-0.04651548832478087,-0.6213143727588479
1446206208955480,51.7508204668,-1.261706157,106.247261,5734753.988110408,619991.976474759,-106.247261,30U,-1.824,-2.658,-0.046,0.07531650000005123,-0.047215600000385896,-0.5865843071796609
1446206209046675,51.7508188875,-1.2617100574,106.253479,5734753.806066074,619991.7114406511,-106.253479,30U,-1.721,-2.721,-0.043,0.07261983339715213,-0.05011102332841866,-0.5530281032089825
1446206209137870,51.7508173874,-1.2617140301,106.253143,5734753.632710349,619991.441206202,-106.253143,30U,-1.632,-2.762,0.008,0.06750699646239827,-0.05167924963171005,-0.5150051923451454
1446206209241743,51.75081595,-1.261718075,106.255989,5734753.466208495,619991.1658220459,-106.255989,30U,-1.593,-2.841,-0.015,0.06615596670317621,-0.053972241492829635,-0.47457530002696713
1446206209348542,51.7508145547,-1.2617222766,106.253593,5734753.304130656,619990.8795102814,-106.253593,30U,-1.514,-2.967,0.059,0.0698958981958802,-0.05676953943278358,-0.4346012939733965
1446206209455212,51.7508132674,-1.2617266591,106.242729,5734753.153765516,619990.5804258747,-106.242729,30U,-1.37,-3.067,0.145,0.07810019962601726,-0.0570337303719529,-0.3957533310376313
1446206209561865,51.7508120731,-1.2617311339,106.229881,5734753.013590735,619990.2747240816,-106.229881,30U,-1.297,-3.124,0.095,0.08237917043998484,-0.0510064255611134,-0.35600145665253885
1446206209668385,51.7508109762,-1.2617357351,106.225845,5734752.884039523,619989.9600395336,-106.225845,30U,-1.168,-3.228,-0.008,0.09031674093932952,-0.04418863258544043,-0.3153325724502049
1446206209774963,51.7508099794,-1.2617404588,106.228745,5734752.7654185565,619989.6366342681,-106.228745,30U,-1.064,-3.285,-0.028,0.0981381608224062,-0.041942954971950226,-0.2757480313430865
1446206209881787,51.7508091037,-1.2617452506,106.231277,5734752.660152653,619989.3082075188,-106.231277,30U,-0.882,-3.332,-0.021,0.09044598773312364,-0.04107941055697803,-0.23625720575124048
1446206209980201,51.7508084114,-1.2617501106,106.229721,5734752.575169801,619988.9745872683,-106.229721,30U,-0.693,-3.372,0.063,0.08505169999977619,-0.03927659999958934,-0.1982995071793339
1446206210060110,51.7508078338,-1.2617550032,106.21917,5734752.502888691,619988.6384128418,-106.21917,30U,-0.613,-3.387,0.13,0.07722696779244781,-0.03121579393978966,-0.16289030407499766
1446206210140020,51.7508073198,-1.2617599181,106.20546,5734752.437643636,619988.3005306171,-106.20546,30U,-0.554,-3.403,0.138,0.07799741030453407,-0.020076526347588174,-0.12856861101990982
1446206210241693,51.7508068776,-1.2617648436,106.196259,5734752.380365769,619987.9617264415,-106.196259,30U,-0.431,-3.404,0.048,0.08027696408161775,-0.011660170919700254,-0.09635454869654857
1446206210348389,51.7508065536,-1.2617697617,106.196426,5734752.3362446735,619987.6231197662,-106.196426,30U,-0.319,-3.389,-0.054,0.08445435942790762,-0.007940243575813872,-0.06765051107499068
1446206210455250,51.7508062961,-1.2617746596,106.2033,5734752.29955204,619987.2857311197,-106.2033,30U,-0.264,-3.371,-0.093,0.08808609834774356,-0.006988440372097128,-0.04034947696229763
1446206210561156,51.750806117,-1.2617795342,106.213211,5734752.271616325,619986.9497429375,-106.213211,30U,-0.121,-3.357,-0.102,0.08811004937365964,-0.007262595319171605,-0.015540391312709092
1446206210652554,51.7508060765,-1.261784379,106.22422,5734752.259142832,619986.6154443272,-106.22422,30U,0.007,-3.318,-0.127,0.08003691828388391,-0.009504564158615874,0.004620871417580561
1446206210743952,51.7508061111,-1.2617891423,106.237022,5734752.255155011,619986.286572111,-106.237022,30U,0.066,-3.237,-0.124,0.07114786687332215,-0.012582988656876294,0.022812397644429657
1446206210848738,51.7508061792,-1.2617937525,106.24852,5734752.255144467,619985.968178637,-106.24852,30U,0.078,-3.113,-0.12,0.0650919460943619,-0.014931016002752307,0.03785158024256941
1446206210955435,51.7508062448,-1.2617981679,106.259888,5734752.255176367,619985.663237603,-106.259888,30U,0.073,-2.973,-0.101,0.06505679999953409,-0.017085000000331415,0.05005650000005924
1446206211061862,51.7508063284,-1.2618023742,106.267944,5734752.25755396,619985.3726817175,-106.267944,30U,0.114,-2.825,-0.077,0.06695823739554901,-0.01767129801713961,0.059228441062140605
1446206211166422,51.7508064447,-1.2618063569,106.275551,5734752.263935829,619985.0974728651,-106.275551,30U,0.144,-2.674,-0.073,0.06730635901758657,-0.018284718111929926,0.06537144971113953
1446206211257911,51.7508065795,-1.2618101345,106.28244,5734752.272712407,619984.8363717424,-106.28244,30U,0.152,-2.551,-0.069,0.06633947924091207,-0.01813966540349959,0.06883878672249198
1446206211349399,51.7508067115,-1.2618137535,106.290321,5734752.281438513,619984.5862251978,-106.290321,30U,0.14,-2.45,-0.089,0.06460911684000673,-0.01848537382335759,0.07112471961515984
1446206211454983,51.7508068368,-1.2618172384,106.298874,5734752.289640138,619984.3453524858,-106.298874,30U,0.139,-2.365,-0.072,0.06381121770522732,-0.019536433910361896,0.07321025611916562
1446206211560579,51.7508069688,-1.2618206119,106.302963,5734752.298770104,619984.1121512582,-106.302963,30U,0.158,-2.29,-0.015,0.06175909478275006,-0.018582926150029815,0.0738468704912883
1446206211652255,51.7508071103,-1.26182388,106.305038,5734752.309129917,619983.8861999509,-106.305038,30U,0.152,-2.216,-0.037,0.06040677881011705,-0.016969155760905633,0.07364522950833663
1446206211743931,51.7508072268,-1.2618270482,106.310448,5734752.316873916,619983.6672103667,-106.310448,30U,0.121,-2.152,-0.064,0.05928467160874247,-0.0167308701853183,0.07410284253363832
1446206211848748,51.7508073378,-1.261830134,106.316956,5734752.324141832,619983.4539229103,-106.316956,30U,0.133,-2.104,-0.063,0.058659903995766254,-0.017111907326021046,0.0737698181632195
1446206211955441,51.75080745,-1.2618331654,106.322449,5734752.331632691,619983.2443871637,-106.322449,30U,0.115,-2.069,-0.049,0.06315919999960434,-0.01821440000064426,0.0721274000008396
1446206212061986,51.75080755,-1.2618361445,106.32663,5734752.337852872,619983.0384936891,-106.32663,30U,0.126,-2.042,-0.037,0.062290928414458345,-0.017868528389010544,0.06963082436794611
1446206212166654,51.7508076683,-1.2618390878,106.330803,5734752.346167024,619982.8350227639,-106.330803,30U,0.135,-2.019,-0.049,0.06101857097173686,-0.01591858972250736,0.06688407089609455
1446206212258181,51.750807785,-1.2618419998,106.335983,5734752.354354743,619982.633716522,-106.335983,30U,0.126,-1.998,-0.057,0.05654672632667886,-0.01470699852347062,0.0634480130228432
1446206212349709,51.7508078935,-1.2618448805,106.341843,5734752.361682063,619982.4345924527,-106.341843,30U,0.114,-1.98,-0.06,0.053004121977371525,-0.014339812795677245,0.05911811238603705
1446206212455170,51.750807983,-1.2618477342,106.34771,5734752.366940885,619982.2373823789,-106.34771,30U,0.089,-1.96,-0.057,0.05192784281293639,-0.014551494759044733,0.05407110882386414
1446206212560638,51.7508080572,-1.2618505615,106.353027,5734752.370541689,619982.0420350782,-106.353027,30U,0.089,-1.941,-0.048,0.04991496420686617,-0.014150698829655962,0.0476770142672773
1446206212652288,51.7508081341,-1.2618533685,106.357315,5734752.374476145,619981.8480818036,-106.357315,30U,0.083,-1.932,-0.041,0.04864758834921823,-0.013150013074313219,0.04077602436609759
1446206212743937,51.7508081902,-1.2618561748,106.361565,5734752.376098675,619981.65423197,-106.361565,30U,0.053,-1.938,-0.045,0.04785143118742267,-0.01261964629933878,0.034585606966871615
1446206212848605,51.750808228,-1.2618589968,106.365547,5734752.375660312,619981.4593469619,-106.365547,30U,0.045,-1.952,-0.039,0.04745220562151903,-0.012049278173139569,0.028355183460398652
1446206212955133,51.750808263,-1.2618618444,106.369904,5734752.37486847,619981.2627023698,-106.369904,30U,0.038,-1.975,-0.049,0.047363799999969834,-0.011363899999847875,0.022023300000864533
1446206213061831,51.7508082853,-1.2618647321,106.375229,5734752.372598358,619981.0633235852,-106.375229,30U,0.017,-2.01,-0.059,0.04680096430816051,-0.011304477130852388,0.017107916100106268
1446206213166622,51.7508082988,-1.2618676696,106.380722,5734752.36926772,619980.8605307423,-106.380722,30U,0.018,-2.041,-0.049,0.04563781661095913,-0.012094288451765956,0.013487018109659518
1446206213258071,51.7508083036,-1.2618706564,106.384758,5734752.364888503,619980.6543580889,-106.384758,30U,-0.004,-2.09,-0.017,0.045598388045378926,-0.012241873262931136,0.010254743778568266
1446206213349520,51.7508082918,-1.2618736999,106.386856,5734752.358570007,619980.4443157841,-106.386856,30U,-0.019,-2.11,-0.045,0.04750063731794732,-0.012042998703638364,0.006483939350457306
1446206213455104,51.7508082891,-1.2618767743,106.393387,5734752.353212667,619980.2321165326,-106.393387,30U,0.02,-2.139,-0.075,0.04499588995052156,-0.012683515110115048,0.0005784899216255886
1446206213561644,51.7508082969,-1.2618799001,106.40094,5734752.348938453,619980.0163416368,-106.40094,30U,-0.009,-2.173,-0.074,0.0429113177287102,-0.012987004249241428,-0.006130519617414378
1446206213668371,51.7508082652,-1.2618830755,106.407448,5734752.340190018,619979.797247846,-106.407448,30U,-0.038,-2.206,-0.057,0.039479993867323336,-0.013304797227271204,-0.012034751975798801
1446206213770095,51.7508082256,-1.2618862932,106.413406,5734752.330493484,619979.5752552894,-106.413406,30U,-0.041,-2.235,-0.057,0.03753623866674052,-0.013109747443587779,-0.018857299444775034
1446206213850141,51.750808179,-1.2618895617,106.418427,5734752.319934957,619979.3497748808,-106.418427,30U,-0.063,-2.273,-0.056,0.03723908918828526,-0.012006859933599862,-0.025518936101849406
1446206213930187,51.7508081063,-1.2618928892,106.425156,5734752.306376911,619979.1202912426,-106.425156,30U,-0.093,-2.319,-0.064,0.03644670000035853,-0.013189699999237258,-0.03113520718035923
1446206214028434,51.7508080144,-1.2618962871,106.430397,5734752.290567914,619978.8859992183,-106.430397,30U,-0.1,-2.373,-0.043,0.03575835754241197,-0.014198175834474072,-0.036540112824924045
1446206214134955,51.7508079195,-1.2618997579,106.434448,5734752.2743053995,619978.6466833164,-106.434448,30U,-0.107,-2.417,-0.042,0.03607828066686853,-0.014516851996229247,-0.04229690967109817
1446206214241685,51.7508078077,-1.2619033008,106.438805,5734752.256044917,619978.402435593,-106.438805,30U,-0.124,-2.476,-0.04,0.03500520389014082,-0.014302081505198749,-0.04774011050980549
1446206214348461,51.7508076912,-1.2619069273,106.442192,5734752.237124264,619978.1524299445,-106.442192,30U,-0.142,-2.531,-0.028,0.033570994885597345,-0.01420757356855808,-0.05264718651940589
1446206214455242,51.7508075462,-1.2619106354,106.444336,5734752.214900027,619977.8968674891,-106.444336,30U,-0.168,-2.586,-0.011,0.03299578885855525,-0.013591405493003072,-0.0558915264076093
1446206214562014,51.7508073995,-1.2619144147,106.447556,5734752.192369639,619977.6363950511,-106.447556,30U,-0.152,-2.636,-0.061,0.033273801602868525,-0.01243349768436855,-0.05918911732627128
1446206214668641,51.7508072552,-1.2619182899,106.455002,5734752.169948415,619977.3692968795,-106.455002,30U,-0.172,-2.711,-0.074,0.03276100053358049,-0.013904207504814569,-0.061395424982337576
1446206214772420,51.7508070778,-1.2619222784,106.461113,5734752.143659919,619977.094466041,-106.461113,30U,-0.208,-2.794,-0.047,0.0314793565499563,-0.015583844391123557,-0.06107756954944585
1446206214863851,51.7508068796,-1.2619263812,106.465271,5734752.114870342,619976.8118009141,-106.465271,30U,-0.209,-2.866,-0.061,0.02998598946729948,-0.01650526258018835,-0.05952110327989038
1446206214955283,51.7508067229,-1.261930609,106.471817,5734752.090490233,619976.5203978459,-106.471817,30U,-0.143,-2.976,-0.059,0.02665269999950556,-0.01809799999951543,-0.0589000071799259
1446206215062005,51.750806576,-1.2619349897,106.476036,5734752.066948465,619976.2184150841,-106.476036,30U,-0.196,-3.07,-0.027,0.026425435014009954,-0.019979580180746484,-0.05765510062300029
1446206215166800,51.7508063912,-1.2619394995,106.477051,5734752.0389796505,619975.9076217986,-106.477051,30U,-0.206,-3.162,-0.016,0.021203537699013387,-0.01876386207040826,-0.054946044388508204
1446206215258106,51.750806217,-1.2619441571,106.479485,5734752.011946534,619975.5865987199,-106.479485,30U,-0.183,-3.268,-0.035,0.022748094403749267,-0.017977935817503045,-0.052328451131647885
1446206215349411,51.7508060486,-1.2619489656,106.483582,5734751.98531023,619975.2551445941,-106.483582,30U,-0.195,-3.372,-0.054,0.025360801579952706,-0.018883651794159777,-0.05213562134394113
1446206215440827,51.7508058551,-1.2619539276,106.491119,5734751.955630191,619974.9131618459,-106.491119,30U,-0.23,-3.48,-0.077,0.031319342662757044,-0.02278952157378119,-0.05206089460775942
1446206215532250,51.7508056499,-1.2619590534,106.495163,5734751.924379642,619974.559904019,-106.495163,30U,-0.22,-3.595,-0.01,0.03618501286690089,-0.02493511574223003,-0.05157404915531853
1446206215635106,51.7508054537,-1.2619643359,106.493439,5734751.893872229,619974.1958063274,-106.493439,30U,-0.193,-3.705,0.035,0.03516629931075364,-0.023301406256200134,-0.050929631213651995
1446206215741772,51.7508052996,-1.2619697714,106.491447,5734751.867794969,619973.8210364422,-106.491447,30U,-0.169,-3.811,0.033,0.026679929807935758,-0.020104704704069585,-0.05217058043721157
1446206215848423,51.7508051407,-1.2619753644,106.488235,5734751.840924891,619973.4354080443,-106.488235,30U,-0.188,-3.909,0.003,0.019483940570964826,-0.016690123224201086,-0.05176597387461638
1446206215955071,51.750804961,-1.2619811007,106.492012,5734751.811506051,619973.0399436685,-106.492012,30U,-0.219,-4.01,-0.041,0.02002660000005769,-0.019220899999249436,-0.053125507179896114
1446206216061691,51.7508047247,-1.2619869753,106.495621,5734751.775565497,619972.6350833019,-106.495621,30U,-0.289,-4.115,-0.01,0.02441714587861689,-0.02135852740812403,-0.05424811924917278
1446206216168316,51.7508044449,-1.2619930058,106.493179,5734751.734531083,619972.219577411,-106.493179,30U,-0.331,-4.214,0.043,0.03151819842485377,-0.020627835741900323,-0.053356267311137226
1446206216274986,51.75080418,-1.2619991744,106.488754,5734751.694926533,619971.7944998597,-106.488754,30U,-0.248,-4.29,0.02,0.0337166543612328,-0.01947407959857207,-0.053494451106999394
1446206216377823,51.7508039651,-1.2620054557,106.490051,5734751.66069696,619971.3615108357,-106.490051,30U,-0.242,-4.366,-0.053,0.032098005593589725,-0.021477283643885625,-0.054825390613330534
1446206216469164,51.7508037601,-1.2620118227,106.500206,5734751.62742741,619970.9225802417,-106.500206,30U,-0.207,-4.429,-0.108,0.025204019127975614,-0.028361807662097727,-0.05576395357480874
1446206216560518,51.7508035374,-1.2620182696,106.506027,5734751.592058133,619970.4781815548,-106.506027,30U,-0.3,-4.473,0.014,0.02444587515176735,-0.033168213406819656,-0.0562859946423043
1446206216652060,51.7508032446,-1.2620247631,106.504257,5734751.548816693,619970.0307521182,-106.504257,30U,-0.31,-4.507,0.035,0.025258498934804793,-0.03312882831215514,-0.05497817163445273
1446206216743602,51.7508029944,-1.2620313172,106.500092,5734751.510213006,619969.5790269545,-106.500092,30U,-0.268,-4.547,0.024,0.030615986036100128,-0.031202751665012175,-0.056183771458506566
1446206216848426,51.7508027444,-1.2620379301,106.497131,5734751.471534889,619969.1232426614,-106.497131,30U,-0.279,-4.589,0.017,0.03176059816734839,-0.03082378176034333,-0.057914800102201944
1446206216955147,51.7508024894,-1.2620446135,106.494308,5734751.43218483,619968.6626054423,-106.494308,30U,-0.271,-4.643,0.034,0.028589100000393365,-0.033003699999722226,-0.05829420718043248
1446206217046548,51.7508022394,-1.2620513735,106.487846,5734751.393264856,619968.1966677546,-106.487846,30U,-0.287,-4.692,0.086,0.02398549088046204,-0.034823872561929675,-0.05831210049314614
1446206217137949,51.7508019653,-1.2620581997,106.480057,5734751.351555975,619967.7262245528,-106.480057,30U,-0.307,-4.731,0.065,0.022346095598676008,-0.036426678656557146,-0.057869234978170356
1446206217241661,51.750801704,-1.2620650841,106.477013,5734751.311174855,619967.2517302495,-106.477013,30U,-0.289,-4.775,0.003,0.02249380325658592,-0.03838897931910994,-0.058903308267747846
1446206217348214,51.7508014214,-1.2620720293,106.477768,5734751.268325088,619966.7730957405,-106.477768,30U,-0.337,-4.819,-0.008,0.023133505240073744,-0.04049338300860803,-0.05908247178707228
1446206217454994,51.750801122,-1.2620790421,106.476196,5734751.223495922,619966.2898397404,-106.476196,30U,-0.315,-4.871,0.052,0.02328559977084124,-0.041714822894664924,-0.05889674462024719
1446206217561786,51.7508008496,-1.2620861305,106.466255,5734751.181545028,619965.8012939967,-106.466255,30U,-0.297,-4.918,0.128,0.022734638739011798,-0.04049820591532731,-0.06020429407740911
1446206217668516,51.7508005778,-1.2620932894,106.45092,5734751.139544957,619965.3078804867,-106.45092,30U,-0.307,-4.967,0.164,0.02088858013227185,-0.03726412159577127,-0.061042394225589054
1446206217775245,51.7508002893,-1.2621005117,106.43718,5734751.095583518,619964.8101351202,-106.43718,30U,-0.334,-5.011,0.101,0.020307422689560085,-0.03523582757503166,-0.061408233910084736
1446206217881969,51.7507999899,-1.2621077999,106.430489,5734751.050301595,619964.3078699681,-106.430489,30U,-0.327,-5.061,0.049,0.017148132889537922,-0.0377863812029238,-0.062353700331178305
1446206217980365,51.7507997022,-1.2621151558,106.425865,5734751.006209489,619963.8009009013,-106.425865,30U,-0.317,-5.106,0.044,0.014303299999834708,-0.040533399999728235,-0.06429310718006545
1446206218060440,51.7507993979,-1.2621225817,106.419731,5734750.960156286,619963.2891441556,-106.419731,30U,-0.367,-5.151,0.075,0.014124900871890807,-0.042201284250752,-0.06680518002946505
1446206218140514,51.7507990573,-1.2621300702,106.413048,5734750.909963393,619962.773162705,-106.413048,30U,-0.382,-5.195,0.066,0.015447289826956862,-0.04420347692837857,-0.06899000043445522
1446206218242138,51.7507987009,-1.2621376226,106.405342,5734750.857908402,619962.2528124982,-106.405342,30U,-0.407,-5.24,0.1,0.016887635283486642,-0.04599147145905092,-0.07142561653717597
1446206218348735,51.7507983385,-1.2621452432,106.393311,5734750.805074065,619961.7277707644,-106.393311,30U,-0.388,-5.284,0.141,0.01623327863071714,-0.046449579037358794,-0.07464541295093932
1446206218455162,51.7507979789,-1.2621529249,106.379745,5734750.752450672,619961.1985042547,-106.379745,30U,-0.411,-5.324,0.121,0.015112323810906452,-0.045992543143571527,-0.07854657957437211
1446206218560642,51.7507975845,-1.2621606506,106.367012,5734750.695884996,619960.6662929032,-106.367012,30U,-0.458,-5.346,0.119,0.01368038385656362,-0.04637076751339709,-0.08105338206175611
1446206218652085,51.7507971686,-1.2621684078,106.354698,5734750.636876637,619960.1319642636,-106.354698,30U,-0.466,-5.366,0.126,0.014170933299102968,-0.04741385650019329,-0.08377196924607803
1446206218743527,51.7507967445,-1.2621761906,106.342148,5734750.57691434,619959.5958903352,-106.342148,30U,-0.478,-5.386,0.133,0.015737295472070846,-0.048404757618608775,-0.08720806878906527
1446206218848297,51.7507962971,-1.2621840092,106.328255,5734750.51430212,619959.0574070851,-106.328255,30U,-0.513,-5.414,0.136,0.016425622284886005,-0.048058213100517944,-0.08948752630425937
1446206218954970,51.7507958293,-1.2621918759,106.31398,5734750.449342245,619958.515657836,-106.31398,30U,-0.51,-5.453,0.147,0.01770910000043413,-0.04751760000015986,-0.09126550717939068
1446206219061667,51.7507953689,-1.2621998018,106.299881,5734750.385107996,619957.9698027655,-106.299881,30U,-0.513,-5.502,0.145,0.01610875762828674,-0.048191410986380676,-0.09439884556880919
1446206219166481,51.7507948905,-1.262207794,106.284836,5734750.318763058,619957.4194191047,-106.284836,30U,-0.563,-5.537,0.152,0.021750076804792552,-0.050209667362028663,-0.09785841869940498
1446206219258114,51.7507943579,-1.2622158236,106.26799,5734750.246329296,619956.8665975549,-106.26799,30U,-0.594,-5.562,0.161,0.022873607400711954,-0.048847687761381424,-0.09932646242818949
1446206219349747,51.7507938434,-1.2622239107,106.25312,5734750.175813867,619956.3097591711,-106.25312,30U,-0.559,-5.606,0.131,0.020002253777493754,-0.04572834563498289,-0.10074827583385927
1446206219455416,51.7507933359,-1.26223205,106.240204,5734750.105991094,619955.7492991883,-106.240204,30U,-0.58,-5.633,0.133,0.018798893840934076,-0.044164911473492045,-0.10166456680234172
1446206219561068,51.7507927902,-1.2622402315,106.225586,5734750.031850908,619955.1860276065,-106.225586,30U,-0.628,-5.667,0.179,0.017309618075333977,-0.043743256033853886,-0.10056906854342253
1446206219652443,51.7507922199,-1.2622484488,106.205673,5734749.954916238,619954.6203501419,-106.205673,30U,-0.622,-5.682,0.168,0.022230927985003986,-0.0431110970247993,-0.09900430824236878
1446206219743817,51.7507916868,-1.262256688,106.194229,5734749.882082486,619954.0530624788,-106.194229,30U,-0.577,-5.706,0.081,0.024136185014888272,-0.046228374971235456,-0.10043707537631197
1446206219848566,51.750791167,-1.2622649569,106.186516,5734749.810679,619953.4836895578,-106.186516,30U,-0.586,-5.718,0.08,0.02262326771562703,-0.05107823828684935,-0.10121907550233816
1446206219955224,51.7507906403,-1.262273246,106.178139,5734749.738475035,619952.912940627,-106.178139,30U,-0.584,-5.738,0.103,0.01855910000067638,-0.055466500000656574,-0.10139010718012104
1446206220061986,51.7507901139,-1.2622815631,106.162689,5734749.66625845,619952.3402582235,-106.162689,30U,-0.597,-5.76,0.179,0.01829852465416956,-0.056873904828469206,-0.10184376877126958
1446206220166805,51.7507895579,-1.2622899041,106.144058,5734749.590710923,619951.7660045641,-106.144058,30U,-0.645,-5.77,0.202,0.022029646784224324,-0.05785417545184341,-0.10153307015871407
1446206220258028,51.7507889908,-1.2622982636,106.124756,5734749.51389865,619951.190503361,-106.124756,30U,-0.618,-5.789,0.219,0.02368779928703315,-0.058809003738759524,-0.10074393095885947
1446206220349252,51.7507884506,-1.2623066621,106.102623,5734749.440013755,619950.6122389467,-106.102623,30U,-0.584,-5.811,0.231,0.023760897379695348,-0.05930045153891679,-0.1001933200959285
1446206220454872,51.750787917,-1.2623151022,106.080193,5734749.366794476,619950.0310856454,-106.080193,30U,-0.599,-5.85,0.229,0.02366042999363446,-0.059623708828675306,-0.09916557654482533
1446206220560512,51.7507873758,-1.2623235925,106.057327,5734749.292647548,619949.4464874744,-106.057327,30U,-0.601,-5.881,0.232,0.024175165975073833,-0.05928482370371481,-0.09710529878434827
1446206220652059,51.750786836,-1.2623321338,106.034271,5734749.218572506,619948.8583653698,-106.034271,30U,-0.59,-5.913,0.22,0.023320656447215482,-0.058023127194576744,-0.09425794131078863
1446206220743607,51.7507863217,-1.2623407223,106.014793,5734749.147255672,619948.2669177712,-106.014793,30U,-0.567,-5.946,0.209,0.023619171279291286,-0.05916917120441532,-0.09130261564214429
1446206220848323,51.750785813,-1.2623493575,105.99247,5734749.076484867,619947.6722319121,-105.99247,30U,-0.566,-5.983,0.238,0.023994345611199827,-0.05987526067110567,-0.0867787273941309
1446206220954920,51.7507853205,-1.2623580418,105.967163,5734749.0074349325,619947.0741140556,-105.967163,30U,-0.54,-6.018,0.259,0.02475149999968484,-0.060117799999797876,-0.08149720717969859
1446206221061574,51.7507848654,-1.2623667757,105.943321,5734748.942462617,619946.4724735201,-105.943321,30U,-0.486,-6.056,0.215,0.023013771883475753,-0.06019157898554385,-0.07669889570132475
1446206221166351,51.7507844439,-1.262375564,105.922867,5734748.881137444,619945.8669890624,-105.922867,30U,-0.451,-6.08,0.209,0.021783291326283885,-0.06439332350749474,-0.07166586878467102
1446206221258000,51.7507840349,-1.2623843807,105.899727,5734748.82115572,619945.2595112012,-105.899727,30U,-0.439,-6.105,0.254,0.01983174637567423,-0.06514720404402079,-0.06624008079047822
1446206221349648,51.7507836523,-1.2623932267,105.87281,5734748.764061732,619944.6499409901,-105.87281,30U,-0.421,-6.116,0.265,0.023791469348780785,-0.06237272060473529,-0.06124057254860859
1446206221455451,51.7507832807,-1.2624020858,105.846596,5734748.708169545,619944.0394374148,-105.846596,30U,-0.396,-6.123,0.256,0.025546703967362725,-0.05752484866092871,-0.0555529344665472
1446206221562188,51.7507829616,-1.262410968,105.818161,5734748.658077775,619943.4272002908,-105.818161,30U,-0.333,-6.143,0.339,0.02364299259059203,-0.05161665298618957,-0.04946175211304919
1446206221668791,51.7507826877,-1.2624198456,105.790573,5734748.61302016,619942.8151609175,-105.790573,30U,-0.289,-6.133,0.246,0.023263279421753262,-0.045898150213656584,-0.04285589124482276
1446206221770411,51.750782428,-1.262428725,105.770126,5734748.569538791,619942.2029596732,-105.770126,30U,-0.308,-6.135,0.199,0.02965338217123069,-0.04220574067498027,-0.03588532795213192
1446206221850436,51.7507821709,-1.2624376037,105.755814,5734748.5263477815,619941.5907998492,-105.755814,30U,-0.253,-6.133,0.095,0.033779820910859265,-0.042807928799362495,-0.02689097600545261
1446206221930461,51.7507820008,-1.2624464798,105.745735,5734748.492836064,619940.9785889921,-105.745735,30U,-0.139,-6.135,0.123,0.032868599999935466,-0.045635699999560686,-0.01751380717965236
1446206222028755,51.7507819276,-1.2624553571,105.732681,5734748.470098328,619940.3660385872,-105.732681,30U,-0.057,-6.13,0.11,0.031022518059888746,-0.04762866131835952,-0.00780748574505143
1446206222135354,51.7507818662,-1.2624642291,105.723541,5734748.448681614,619939.7538227449,-105.723541,30U,-0.088,-6.131,0.077,0.033338613333009165,-0.052117853806634695,0.004186499346696747
1446206222242064,51.7507818223,-1.2624731039,105.71199,5734748.42920648,619939.141367271,-105.71199,30U,0.006,-6.131,0.176,0.036278953449361606,-0.05551558346585943,0.017554096166373854
1446206222348799,51.7507818959,-1.2624819774,105.694778,5734748.422800288,619938.528690243,-105.694778,30U,0.135,-6.129,0.19,0.04067672292106357,-0.05692308649113175,0.027966799267197848
1446206222455343,51.7507820449,-1.2624908516,105.674332,5734748.424777966,619937.9157651486,-105.674332,30U,0.183,-6.127,0.226,0.043029289061981904,-0.05672548443045266,0.03816587433984909
1446206222561873,51.7507822374,-1.2624997114,105.650749,5734748.43161687,619937.3037187596,-105.650749,30U,0.257,-6.12,0.252,0.033352752756661046,-0.05199779003652002,0.05000083358052355
1446206222668396,51.7507825241,-1.2625085715,105.627846,5734748.448930976,619936.6914021152,-105.627846,30U,0.358,-6.116,0.192,0.028573483183454946,-0.04755742892332651,0.0610502199241625
1446206222772087,51.7507828561,-1.2625174373,105.609169,5734748.471273426,619936.0785720344,-105.609169,30U,0.358,-6.123,0.183,0.0338007531978478,-0.04890701671595519,0.07074116891933621
1446206222863509,51.7507831788,-1.2625263083,105.59053,5734748.492573183,619935.4654076758,-105.59053,30U,0.355,-6.126,0.185,0.041954484815956435,-0.052487641898882616,0.08126087942719967
1446206222954930,51.7507835742,-1.262535158,105.574928,5734748.521992729,619934.8535209383,-105.574928,30U,0.524,-6.105,0.128,0.04431160000049046,-0.055271199999590265,0.09042619999989729
1446206223061582,51.7507841048,-1.2625439856,105.563057,5734748.566483767,619934.242801472,-105.563057,30U,0.618,-6.098,0.138,0.03939546759957452,-0.05599324582655304,0.09810576452348552
1446206223166346,51.7507846614,-1.2625528126,105.546242,5734748.613867227,619933.6320545572,-105.546242,30U,0.607,-6.104,0.235,0.03450074637432326,-0.05406239434953038,0.10843683274753935
1446206223257892,51.7507852252,-1.2625616406,105.521088,5734748.662049801,619933.0212195583,-105.521088,30U,0.642,-6.091,0.265,0.036321797226352884,-0.050363119408143024,0.11966926484933238
1446206223349437,51.7507858421,-1.262570458,105.495354,5734748.716154927,619932.4109755596,-105.495354,30U,0.73,-6.083,0.219,0.04001742167721934,-0.047156847468722875,0.1295803167440071
1446206223440919,51.7507865308,-1.2625792624,105.478767,5734748.778266108,619931.8014386813,-105.478767,30U,0.784,-6.077,0.141,0.04315847784452233,-0.048351656908122674,0.1381023326175936
1446206223532397,51.7507872695,-1.2625880528,105.465248,5734748.8459606925,619931.1927357,-105.465248,30U,0.828,-6.063,0.135,0.04565752041304707,-0.04987994671313364,0.14698921123635364
1446206223635316,51.7507880537,-1.2625968253,105.450592,5734748.918744664,619930.5851477305,-105.450592,30U,0.909,-6.048,0.187,0.046306222869246544,-0.0487656030748658,0.15752877833242773
1446206223742048,51.7507889123,-1.2626055699,105.43502,5734748.999848324,619929.979288454,-105.43502,30U,0.987,-6.03,0.153,0.043951772676816596,-0.04628841722093055,0.16780811415096777
1446206223848644,51.7507898268,-1.2626142898,105.418633,5734749.087209095,619929.3749860057,-105.418633,30U,1.025,-6.015,0.18,0.04207963299198156,-0.0435763573114477,0.17842637673104297
1446206223955221,51.7507907755,-1.2626229792,105.399872,5734749.178423339,619928.7726982074,-105.399872,30U,1.073,-6.0,0.177,0.04039329999989898,-0.038553400000354864,0.1899443000005801
1446206224061755,51.7507917842,-1.2626316315,105.383331,5734749.2763710255,619928.1728122743,-105.383331,30U,1.158,-5.965,0.132,0.03756536920155799,-0.034439942414073374,0.20130040646652733
1446206224168303,51.7507928647,-1.2626402394,105.372894,5734749.382376392,619927.5758008232,-105.372894,30U,1.219,-5.943,0.088,0.03433210343094916,-0.033171786212735546,0.2122963656393342
1446206224274953,51.7507939991,-1.2626488143,105.363701,5734749.4944301,619926.9809244014,-105.363701,30U,1.291,-5.913,0.068,0.032229305367568406,-0.034170465150107104,0.22375807411037532
1446206224377843,51.7507951795,-1.2626573518,105.358391,5734749.611660857,619926.3885076438,-105.358391,30U,1.338,-5.888,0.041,0.02829278928703404,-0.03696012139631464,0.23611602699830714
1446206224469456,51.750796433,-1.2626658515,105.354576,5734749.737083004,619925.7985063752,-105.354576,30U,1.441,-5.86,0.044,0.02443916779211074,-0.04211809448284053,0.24865025093597126
1446206224561032,51.7507977702,-1.2626743051,105.347885,5734749.871888975,619925.2114654153,-105.347885,30U,1.522,-5.821,0.074,0.01818094975323882,-0.04566302163674414,0.2606372327579601
1446206224652053,51.7507991691,-1.2626827218,105.337234,5734750.013617107,619924.6268080258,-105.337234,30U,1.58,-5.803,0.155,0.01098236802165027,-0.04579856486638511,0.27336702190994233
1446206224743073,51.75080062,-1.2626911152,105.323845,5734750.1611663345,619924.0436211794,-105.323845,30U,1.636,-5.802,0.127,0.008415531721492772,-0.04392143563952046,0.28637783262122324
1446206224847903,51.7508021421,-1.2626995363,105.307732,5734750.3165879715,619923.4583338122,-105.307732,30U,1.731,-5.833,0.184,0.01045452213567023,-0.044700825568054436,0.2988548375293556
1446206224954705,51.7508037368,-1.262707997,105.289642,5734750.48001814,619922.8701208372,-105.289642,30U,1.806,-5.864,0.171,0.012759200000640188,-0.049617600000553035,0.31109710000070995
1446206225046118,51.7508054188,-1.2627164843,105.273575,5734750.653112945,619922.2798406251,-105.273575,30U,1.921,-5.878,0.145,0.008392607659525868,-0.056372123789022226,0.3237458332016349
1446206225137531,51.7508072076,-1.2627249952,105.262527,5734750.838045842,619921.6876485997,-105.262527,30U,2.035,-5.897,0.085,0.0028226586840148157,-0.0641220562495556,0.33742448988386137
1446206225241536,51.750809077,-1.2627335475,105.250229,5734751.031873964,619921.0923855421,-105.250229,30U,2.095,-5.93,0.201,0.004763407329813596,-0.0710689801082164,0.35158697594297367
1446206225348446,51.7508109848,-1.2627421296,105.221352,5734751.229923477,619920.494963911,-105.221352,30U,2.155,-5.938,0.371,0.002461590710495468,-0.06719561986273222,0.3666097166459511
1446206225455139,51.7508130031,-1.262750681,105.184586,5734751.440311822,619919.8993686634,-105.184586,30U,2.322,-5.893,0.367,-0.0014288942518236745,-0.05687919701757244,0.38038237729052476
1446206225561816,51.7508151306,-1.2627592036,105.149788,5734751.662891305,619919.3054720997,-105.149788,30U,2.389,-5.891,0.333,-0.0025142739364791685,-0.04710963196484126,0.39213972902436733
1446206225668477,51.7508172983,-1.2627677346,105.11628,5734751.889927536,619918.7108893099,-105.11628,30U,2.415,-5.898,0.323,-0.0003013357885471796,-0.03903143884078544,0.4044208058083796
1446206225775112,51.7508195078,-1.2627762442,105.092941,5734752.121647439,619918.1176729631,-105.092941,30U,2.489,-5.865,0.156,0.004933063216906998,-0.036647650344307885,0.4167519423877969
1446206225881640,51.7508218095,-1.2627846922,105.081642,5734752.363721897,619917.5284643157,-105.081642,30U,2.601,-5.821,0.059,0.007074091605777952,-0.037958587180115314,0.42803004190387833
1446206225979877,51.7508241876,-1.2627930891,105.076851,5734752.614376587,619916.9425804712,-105.076851,30U,2.671,-5.798,0.05,0.005723700000016943,-0.0407392999996978,0.43952079999976346
1446206226059875,51.7508266238,-1.2628014486,105.070869,5734752.871553912,619916.3591242797,-105.070869,30U,2.726,-5.775,0.087,0.0062834918812440166,-0.043654183434731035,0.4514972347901012
1446206226139872,51.7508291018,-1.2628097838,105.058212,5734753.133419674,619915.7772347078,-105.058212,30U,2.777,-5.754,0.144,0.007894938821745428,-0.04472571282174255,0.46405508499852205
1446206226241577,51.7508316401,-1.2628180786,105.043877,5734753.402057653,619915.1979740362,-105.043877,30U,2.855,-5.722,0.156,0.01321880888150003,-0.046653481609228546,0.4760427603218533
1446206226348293,51.7508342445,-1.2628263243,105.027748,5734753.678127149,619914.6219274099,-105.027748,30U,2.932,-5.681,0.179,0.01648168229536665,-0.04611169880316843,0.4868097733207626
1446206226454950,51.7508369174,-1.2628345158,105.00959,5734753.961903443,619914.0494404952,-105.00959,30U,3.005,-5.643,0.179,0.016148739709331242,-0.041993938741170654,0.49696378293620314
1446206226560655,51.7508396511,-1.2628426612,104.993286,5734754.252516924,619913.4799745961,-104.993286,30U,3.073,-5.614,0.166,0.012397747857463195,-0.038346185222915816,0.5064052587080178
1446206226652131,51.7508424358,-1.2628507695,104.975487,5734754.548862977,619912.91293446,-104.975487,30U,3.115,-5.594,0.191,0.010129514905499844,-0.03548139577603304,0.5162260178386536
1446206226743606,51.7508452574,-1.262858846,104.960724,5734754.8493648805,619912.3479916069,-104.960724,30U,3.155,-5.576,0.107,0.011142565049738602,-0.036095585833294856,0.5254724581838632
1446206226848376,51.7508481182,-1.2628668811,104.953178,5734755.154294192,619911.785802575,-104.953178,30U,3.174,-5.55,0.057,0.015892020425205933,-0.04212278104967463,0.5326683195667398
1446206226955045,51.7508510101,-1.262874878,104.947433,5734755.462744876,619911.2261679417,-104.947433,30U,3.247,-5.509,0.094,0.009392100000613999,-0.04592810000078895,0.5407606000006614
1446206227061713,51.7508539832,-1.2628828015,104.937782,5734755.780346232,619910.6713846453,-104.937782,30U,3.331,-5.472,0.104,0.0057544975040389815,-0.04587108925012355,0.5475257881121434
1446206227166475,51.7508569923,-1.2628906992,104.924599,5734756.101993484,619910.1182868789,-104.924599,30U,3.34,-5.472,0.193,0.003194745511023291,-0.04642599310465163,0.5528204569599725
1446206227257887,51.7508599857,-1.2628986208,104.902771,5734756.421855569,619909.5635811026,-104.902771,30U,3.313,-5.482,0.186,0.0070543676416464935,-0.045672451285918854,0.558616476168057
1446206227349300,51.7508630082,-1.2629065111,104.886154,5734756.745005271,619909.0109587634,-104.886154,30U,3.387,-5.431,0.145,0.008727837064959026,-0.04930956601532782,0.5637883277567475
1446206227455167,51.7508660693,-1.2629143452,104.873138,5734757.0725399805,619908.462113387,-104.873138,30U,3.42,-5.408,0.172,0.009714589059267632,-0.05103624339786366,0.5688464820686865
1446206227561034,51.7508691571,-1.2629221405,104.853851,5734757.403107738,619907.9158754827,-104.853851,30U,3.436,-5.38,0.191,0.008108190729719036,-0.044418752985442844,0.5741633478289376
1446206227652446,51.7508722598,-1.2629299151,104.83461,5734757.735366554,619907.3710269763,-104.83461,30U,3.45,-5.373,0.223,0.007810892292648106,-0.03843665285672847,0.5805394784829692
1446206227743857,51.7508753783,-1.262937662,104.81118,5734758.069428025,619906.8280486487,-104.81118,30U,3.477,-5.343,0.224,0.0084097464018267,-0.03233701370930745,0.5867543363298493
1446206227848590,51.7508785264,-1.2629453471,104.794655,5734758.406882848,619906.2892576552,-104.794655,30U,3.507,-5.298,0.086,0.012609542562119045,-0.030103958587493693,0.5922760709006787
1446206227955227,51.7508816869,-1.2629529916,104.79129,5734758.745783428,619905.7532362505,-104.79129,30U,3.52,-5.273,0.009,0.015600299999337852,-0.03410590000008317,0.5976224000003649
1446206228061769,51.7508848873,-1.2629605825,104.788292,5734759.089209301,619905.220808907,-104.788292,30U,3.565,-5.241,0.039,0.018058043688257332,-0.03838726576706763,0.6021182799305994
1446206228166429,51.7508881101,-1.262968141,104.782677,5734759.43517951,619904.6905586742,-104.782677,30U,3.59,-5.221,0.089,0.013276876055527052,-0.04340336573712525,0.6071988452597356
1446206228257912,51.750891364,-1.2629756499,104.772858,5734759.784689825,619904.1636497163,-104.772858,30U,3.616,-5.193,0.096,0.009348700688812467,-0.047406418191409956,0.6127720096710354
1446206228349394,51.7508946159,-1.2629831526,104.761375,5734760.1339879725,619903.637174075,-104.761375,30U,3.586,-5.203,0.137,0.019203568385848958,-0.05118850852409357,0.617883486851185
1446206228455159,51.7508978442,-1.2629906635,104.746941,5734760.480648227,619903.1101950172,-104.746941,30U,3.599,-5.184,0.188,0.024849177003952186,-0.0515832040669797,0.6235635313948795
1446206228560916,51.7509011291,-1.26299809,104.724876,5734760.833741548,619902.5888917192,-104.724876,30U,3.683,-5.108,0.231,0.022746869894708702,-0.0443915576490107,0.628279918238666
1446206228652294,51.7509044825,-1.2630054198,104.701294,5734761.194611507,619902.0740816529,-104.701294,30U,3.73,-5.066,0.22,0.014790692087651994,-0.035136985952697035,0.6321681911497473
1446206228743671,51.7509078168,-1.2630127582,104.681076,5734761.553343342,619901.5587286433,-104.681076,30U,3.672,-5.089,0.196,0.014807469475239166,-0.02872699483430859,0.6376245227706239
1446206228848304,51.7509111267,-1.2630200965,104.66629,5734761.90936196,619901.0434472318,-104.66629,30U,3.688,-5.06,0.099,0.019790444675616903,-0.026475633758567454,0.6429969832889368
1446206228954830,51.7509144632,-1.263027373,104.661156,5734762.268440302,619900.5323610997,-104.661156,30U,3.719,-5.021,-0.006,0.024847599999489236,-0.030510199999999228,0.6460000999994915
1446206229061569,51.7509178358,-1.2630345872,104.662659,5734762.63163565,619900.0254796001,-104.662659,30U,3.76,-4.976,-0.003,0.02560816163370263,-0.03861491660122762,0.6470851486300945
1446206229166394,51.7509212103,-1.2630417739,104.661133,5734762.995087545,619899.5204912885,-104.661133,30U,3.743,-4.979,0.045,0.025080331035061507,-0.043170531266360196,0.649063629638004
1446206229257825,51.750924575,-1.263048952,104.654175,5734763.357463804,619899.016122606,-104.654175,30U,3.735,-4.962,0.09,0.023712819107204595,-0.045037160849008245,0.6518351030545362
1446206229349257,51.7509279352,-1.2630561092,104.642265,5734763.71937404,619898.5132085057,-104.642265,30U,3.722,-4.95,0.174,0.027864155942506588,-0.04435469297559234,0.6543125354117936
1446206229454891,51.7509312899,-1.2630632534,104.621033,5734764.080694062,619898.011206349,-104.621033,30U,3.726,-4.937,0.223,0.030503372298145367,-0.038916979645784826,0.6564805582811157
1446206229561481,51.7509346541,-1.2630703584,104.602493,5734764.443135025,619897.5118848259,-104.602493,30U,3.74,-4.902,0.15,0.03311094518343767,-0.03487446666894131,0.6573775230529846
1446206229668212,51.7509380206,-1.2630774387,104.587898,5734764.805872414,619897.0142621652,-104.587898,30U,3.733,-4.894,0.126,0.03276745331776707,-0.03163646784465375,0.6572634245739072
1446206229769945,51.7509413812,-1.2630845014,104.577446,5734765.167982664,619896.5178700143,-104.577446,30U,3.727,-4.88,0.084,0.03153803693668936,-0.03100416672565548,0.6569365069185549
1446206229850018,51.7509447313,-1.2630915466,104.570282,5734765.528954061,619896.0227136529,-104.570282,30U,3.72,-4.871,0.063,0.0283599519442612,-0.03234226787292226,0.6555748067398849
1446206229930091,51.7509480695,-1.2630985817,104.563828,5734765.888618755,619895.5282860151,-104.563828,30U,3.687,-4.876,0.047,0.02866080000054891,-0.03441630000076629,0.6536059999995169
1446206230028450,51.7509513718,-1.2631056383,104.560295,5734766.244255854,619895.0324695164,-104.560295,30U,3.65,-4.886,0.044,0.03503880316073911,-0.03896556461702803,0.6520426596529639
1446206230135123,51.7509546513,-1.2631127003,104.553734,5734766.597348621,619894.5363407418,-104.553734,30U,3.641,-4.879,0.088,0.03873083332592256,-0.04140948308344889,0.6499176215204048
1446206230241732,51.7509579415,-1.2631197404,104.545212,5734766.9516673405,619894.0416953142,-104.545212,30U,3.649,-4.866,0.088,0.04391920470905601,-0.04594997400461002,0.6458804509004086
1446206230348326,51.7509612137,-1.2631267803,104.533203,5734767.303984726,619893.5471114296,-104.533203,30U,3.622,-4.867,0.143,0.044126628594392744,-0.049730161638684295,0.6418337356890891
1446206230455008,51.7509644639,-1.2631338161,104.515366,5734767.65386236,619893.0528688721,-104.515366,30U,3.591,-4.873,0.227,0.04483440623254741,-0.045328442122111255,0.6398203671586258
1446206230561695,51.7509676829,-1.2631408544,104.496597,5734768.0002663,619892.5585364493,-104.496597,30U,3.575,-4.858,0.149,0.041508357556370695,-0.03466645001743073,0.6382802700232015
1446206230668372,51.7509708979,-1.263147889,104.48217,5734768.346231543,619892.0644700755,-104.48217,30U,3.552,-4.887,0.204,0.042343944851052126,-0.02691367180976928,0.6359902218518516
1446206230772181,51.7509740647,-1.263154971,104.460732,5734768.686758785,619891.5672597012,-104.460732,30U,3.511,-4.897,0.196,0.04501928794268421,-0.021550531569573442,0.634877630169851
1446206230863560,51.7509772357,-1.2631620197,104.44931,5734769.027807874,619891.0723367529,-104.44931,30U,3.528,-4.86,0.036,0.048208900662034204,-0.02664977713500449,0.6318564623234395
1446206230954939,51.7509804025,-1.2631690444,104.451637,5734769.3684293935,619890.5790815569,-104.451637,30U,3.507,-4.858,-0.082,0.047649200000440484,-0.03764519999954819,0.6276518000001877
1446206231061614,51.7509835502,-1.2631760775,104.460373,5734769.7069131145,619890.085297211,-104.460373,30U,3.482,-4.865,-0.063,0.04654981092963436,-0.048132899091988264,0.6243483770481222
1446206231166392,51.7509866681,-1.2631831187,104.459763,5734770.042069625,619889.5910327571,-104.459763,30U,3.443,-4.869,0.094,0.04953225942675242,-0.04862599824065329,0.6214289331445481
1446206231257894,51.750989762,-1.2631901735,104.442245,5734770.374534881,619889.0958932068,-104.442245,30U,3.433,-4.877,0.253,0.052654699418325464,-0.0376891768163646,0.6184988469335442
1446206231349396,51.7509928421,-1.2631972364,104.417221,5734770.705452223,619888.6002311783,-104.417221,30U,3.408,-4.885,0.241,0.05910990056303719,-0.02595973377690736,0.6155853651218186
1446206231440738,51.7509958994,-1.2632043125,104.39402,5734771.033812418,619888.1037184823,-104.39402,30U,3.392,-4.894,0.223,0.06284402617784185,-0.016615160132041402,0.6135352492738759
1446206231532069,51.7509989459,-1.2632114117,104.377693,5734771.360933664,619887.6056400108,-104.377693,30U,3.384,-4.911,0.102,0.06541758975011738,-0.010903601581288471,0.6124940350115519
