source_timestamp,destination_timestamp,x,y,z,roll,pitch,yaw
1446206196941317,1446206196878817,4.045523e-01,-1.005229e-02,-2.163991e-02,-5.295553e-04,1.919459e-03,-1.727609e-03
1446206197003818,1446206196941317,4.100683e-01,-1.430694e-02,-2.075169e-02,-1.084816e-03,1.783941e-03,-1.625553e-03
1446206197066320,1446206197003818,4.115971e-01,-4.006767e-03,-2.425185e-02,-1.864654e-03,7.744428e-04,-1.842913e-03
1446206197128819,1446206197066320,4.130603e-01,-1.123253e-02,-2.089464e-02,-1.641179e-03,9.227769e-05,-1.423926e-03
1446206197191319,1446206197128819,1.962895e-01,-1.441040e-01,3.240646e-02,-1.139587e-03,1.050061e-04,3.763973e-03
1446206197253820,1446206197191319,4.123088e-01,-7.866788e-04,-2.423381e-02,-2.179354e-03,-1.046259e-03,-1.549273e-03
1446206197316321,1446206197253820,4.274108e-01,-1.818312e-02,-2.310662e-02,-1.981201e-03,-1.554882e-03,-1.097363e-03
1446206197378821,1446206197316321,6.095755e-01,-5.336665e-03,-4.019364e-02,-1.162063e-03,-2.033127e-03,-1.583293e-03
1446206197441322,1446206197378821,4.255068e-01,-1.712746e-03,-2.812839e-02,1.789666e-03,-1.110501e-03,-9.086471e-04
1446206197503823,1446206197441322,4.229011e-01,-2.160477e-03,-3.108036e-02,2.195254e-03,1.719436e-04,-6.546340e-04
1446206197566323,1446206197503823,4.070571e-01,-6.028405e-03,-2.516240e-02,1.898007e-03,3.918603e-04,-4.705775e-04
1446206197628823,1446206197566323,4.328794e-01,-4.158433e-03,-2.944221e-02,1.740895e-03,9.865634e-04,-3.576905e-04
1446206197691324,1446206197628823,4.318201e-01,-3.086121e-03,-2.551760e-02,1.375434e-03,1.832974e-03,1.119156e-04
1446206197753825,1446206197691324,4.970175e-01,-6.930658e-03,-1.280624e-02,6.416460e-04,9.311426e-04,2.245868e-04
1446206197816325,1446206197753825,4.284624e-01,-9.395010e-04,-2.349130e-02,-1.692952e-05,-1.176060e-03,-1.634460e-04
1446206197878826,1446206197816325,4.237332e-01,-6.397383e-03,-1.756712e-02,9.136793e-04,-2.521199e-03,-4.877204e-04
1446206197941326,1446206197878826,4.609498e-01,-1.645057e-02,-1.621719e-02,8.004959e-04,-3.310167e-03,-1.808898e-04
1446206198003827,1446206197941326,4.248891e-01,-4.357828e-03,-1.985553e-02,3.964349e-04,-3.049374e-03,-1.523431e-04
1446206198066328,1446206198003827,4.213173e-01,-7.538945e-04,-2.427471e-02,1.682593e-03,-3.319651e-03,-2.777548e-04
1446206198128828,1446206198066328,4.293699e-01,-2.325687e-04,-2.701895e-02,2.448351e-03,-1.784040e-03,-3.640199e-04
1446206198191329,1446206198128828,4.228333e-01,-2.512840e-03,-2.535323e-02,1.084436e-03,-1.136578e-03,-7.660993e-05
1446206198253829,1446206198191329,4.291856e-01,-4.370390e-03,-2.517592e-02,-6.073544e-04,5.374222e-05,1.080024e-04
1446206198316330,1446206198253829,4.356139e-01,-6.290186e-03,-2.528777e-02,-2.824332e-04,7.580697e-04,4.145534e-04
1446206198378831,1446206198316330,4.283919e-01,-2.723452e-03,-2.084865e-02,-1.048764e-03,8.706189e-04,1.419552e-04
1446206198441331,1446206198378831,4.259091e-01,-3.738217e-03,-2.118789e-02,-1.040599e-03,4.031537e-04,5.660080e-05
1446206198503831,1446206198441331,4.265524e-01,-4.599204e-03,-2.086109e-02,-5.110025e-05,-1.022509e-03,1.973882e-04
1446206198566332,1446206198503831,4.358048e-01,-3.969754e-03,-2.229695e-02,1.693869e-04,-1.460073e-03,3.545104e-04
1446206198628832,1446206198566332,4.330443e-01,-2.647723e-03,-2.335592e-02,2.288669e-04,-8.381304e-04,6.861711e-04
1446206198691333,1446206198628832,4.359134e-01,-2.840712e-03,-2.428576e-02,-3.453936e-05,-1.467127e-03,9.876388e-04
1446206198753834,1446206198691333,4.328732e-01,-4.637830e-04,-2.402671e-02,7.660352e-04,-1.214164e-03,8.638128e-04
1446206198816335,1446206198753834,4.358943e-01,-7.478888e-04,-2.467638e-02,3.612266e-04,-3.852428e-04,7.689868e-04
1446206198878835,1446206198816335,4.411430e-01,-1.377873e-04,-2.581170e-02,8.731204e-04,-1.352961e-04,6.348084e-04
1446206198941335,1446206198878835,4.377785e-01,-1.816394e-03,-2.427809e-02,4.046281e-04,-2.342708e-04,7.404039e-04
1446206199003836,1446206198941335,4.378613e-01,-2.161083e-03,-2.520550e-02,7.319534e-04,-2.850438e-04,8.781783e-04
1446206199066337,1446206199003836,4.387336e-01,-1.416025e-03,-2.576487e-02,8.761161e-06,3.677797e-04,8.261075e-04
1446206199128836,1446206199066337,4.432946e-01,-2.652375e-03,-2.397686e-02,-4.326082e-04,3.996690e-04,9.105940e-04
1446206199191338,1446206199128836,4.379049e-01,-1.207544e-04,-2.534596e-02,1.317159e-03,1.091120e-04,8.447045e-04
1446206199253839,1446206199191338,4.399668e-01,-1.770699e-03,-2.668610e-02,1.178769e-04,2.604033e-04,7.747697e-04
1446206199316338,1446206199253839,4.431632e-01,-3.271088e-03,-2.506508e-02,-7.034386e-04,7.715309e-05,8.375061e-04
1446206199378839,1446206199316338,4.419986e-01,-2.206828e-03,-2.507160e-02,6.958981e-04,5.863969e-05,8.509560e-04
1446206199441340,1446206199378839,4.427544e-01,-1.738005e-03,-2.505088e-02,9.781887e-04,-5.744125e-05,9.707434e-04
1446206199503841,1446206199441340,4.433223e-01,-4.996509e-03,-2.593358e-02,-1.868688e-03,7.493580e-04,9.957919e-04
1446206199566342,1446206199503841,4.437857e-01,-3.643667e-03,-2.514612e-02,-6.610182e-04,9.207793e-04,7.120884e-04
1446206199628843,1446206199566342,4.449393e-01,-1.581727e-03,-2.485421e-02,1.960360e-04,-2.482818e-04,6.724488e-04
1446206199691343,1446206199628843,4.454694e-01,-2.752310e-04,-2.538683e-02,9.033067e-04,2.660756e-04,7.914393e-04
1446206199753845,1446206199691343,4.450620e-01,1.421142e-03,-2.605219e-02,2.473000e-03,4.108720e-04,7.999868e-04
1446206199816346,1446206199753845,4.454861e-01,-4.232855e-04,-2.579245e-02,8.597382e-04,4.726509e-04,6.341217e-04
1446206199878847,1446206199816346,4.417297e-01,-1.162918e-03,-2.744836e-02,6.159311e-05,6.865064e-04,8.873664e-04
1446206199941346,1446206199878847,4.451767e-01,-8.779902e-04,-2.844169e-02,1.042167e-03,1.105323e-03,1.140761e-03
1446206200003846,1446206199941346,4.459423e-01,-2.592417e-03,-2.727535e-02,-6.138401e-04,1.096198e-03,1.093868e-03
1446206200066346,1446206200003846,4.467440e-01,-4.298233e-03,-2.697649e-02,-1.898872e-03,1.236978e-03,5.967944e-04
1446206200128845,1446206200066346,4.440867e-01,-2.672585e-03,-2.814808e-02,4.320686e-04,2.395884e-03,-4.084682e-06
1446206200191347,1446206200128845,4.447056e-01,-1.552900e-03,-2.572796e-02,5.141901e-04,1.786634e-03,-3.385426e-06
1446206200253849,1446206200191347,4.505612e-01,5.898561e-05,-2.381848e-02,1.478806e-03,-5.394778e-04,1.494202e-04
1446206200316348,1446206200253849,4.552603e-01,-4.832068e-04,-2.249166e-02,1.533779e-03,-2.601767e-03,5.863991e-05
1446206200378852,1446206200316348,4.527912e-01,-2.882112e-03,-2.227960e-02,-6.582383e-04,-2.528821e-03,2.574161e-04
1446206200441351,1446206200378852,4.526352e-01,-5.329736e-03,-2.346631e-02,-3.480450e-03,-2.641927e-03,8.185769e-04
1446206200503852,1446206200441351,4.509717e-01,-4.998337e-03,-2.805980e-02,-2.135698e-03,-2.524730e-03,9.811923e-04
1446206200566352,1446206200503852,4.491935e-01,-4.792150e-03,-3.084651e-02,-1.516632e-03,-8.822295e-04,1.078271e-03
1446206200628849,1446206200566352,4.515163e-01,-2.200048e-03,-3.103997e-02,-1.273098e-03,1.276262e-03,1.097125e-03
1446206200691355,1446206200628849,4.490832e-01,-6.556383e-04,-2.960092e-02,1.532337e-04,2.180538e-03,1.279671e-03
1446206200753854,1446206200691355,4.506152e-01,2.093618e-03,-2.692590e-02,2.018360e-03,1.850408e-03,1.338608e-03
1446206200816354,1446206200753854,4.524855e-01,6.665372e-04,-2.523463e-02,1.751615e-04,1.707158e-03,1.359681e-03
1446206200878852,1446206200816354,4.543006e-01,-4.402572e-04,-2.436551e-02,1.639695e-04,2.965912e-04,1.192950e-03
1446206200941355,1446206200878852,4.562549e-01,-4.104267e-04,-2.398395e-02,6.979806e-04,-1.335535e-03,8.988560e-04
1446206201003855,1446206200941355,4.560192e-01,-3.706274e-04,-2.575195e-02,1.056242e-03,-1.796065e-03,6.825096e-04
1446206201066355,1446206201003855,4.523097e-01,-1.168582e-03,-2.816040e-02,5.776192e-04,-1.302909e-03,4.181889e-04
1446206201128854,1446206201066355,4.530745e-01,-9.860006e-05,-2.873840e-02,1.144387e-03,2.795754e-05,3.954564e-05
1446206201191356,1446206201128854,4.519169e-01,-3.432378e-03,-2.852911e-02,-3.099278e-04,1.795826e-04,2.763098e-05
1446206201253857,1446206201191356,4.524416e-01,-2.386534e-03,-2.638436e-02,6.054822e-04,-4.536466e-04,1.290658e-04
1446206201316357,1446206201253857,4.498627e-01,-1.867637e-03,-2.523671e-02,1.256360e-04,-5.146845e-04,1.213206e-04
1446206201378858,1446206201316357,4.444731e-01,-2.445110e-03,-2.553598e-02,-2.109884e-05,-6.339144e-04,-1.541249e-04
1446206201441368,1446206201378858,4.536468e-01,9.957059e-04,-2.535544e-02,5.790353e-04,-6.943284e-04,-2.572894e-04
1446206201503859,1446206201441368,4.439448e-01,-3.170754e-03,-2.583098e-02,-8.977542e-04,-1.305284e-03,-9.410395e-05
1446206201566360,1446206201503859,4.469262e-01,-1.752869e-03,-2.613297e-02,-2.224387e-03,-2.080719e-03,-1.238521e-04
1446206201628860,1446206201566360,4.435472e-01,-3.547148e-03,-2.605830e-02,-4.747681e-05,-2.219208e-03,-1.764055e-04
1446206201691361,1446206201628860,4.446318e-01,-4.302802e-03,-2.611046e-02,-1.833141e-03,-9.941167e-04,-1.760537e-04
1446206201753862,1446206201691361,4.416537e-01,-4.557502e-03,-2.669533e-02,-2.616204e-03,-2.064778e-04,8.174876e-05
1446206201816362,1446206201753862,4.434924e-01,-5.522523e-03,-2.675996e-02,-1.972724e-03,3.961123e-05,2.826447e-04
1446206201878862,1446206201816362,4.398528e-01,-5.688850e-03,-2.872797e-02,-2.874575e-03,9.057022e-04,1.408262e-04
1446206201941364,1446206201878862,4.442163e-01,-5.628851e-03,-2.587534e-02,-1.940867e-03,-5.750629e-05,3.943900e-04
1446206202003865,1446206201941364,4.425473e-01,-1.792159e-03,-2.491557e-02,5.740950e-04,-3.222737e-04,3.333333e-04
1446206202066365,1446206202003865,4.429786e-01,-5.426750e-03,-2.440178e-02,-3.644396e-03,8.421953e-06,4.929446e-04
1446206202128865,1446206202066365,4.449120e-01,-5.624283e-03,-2.594585e-02,-2.977140e-03,9.028417e-04,3.137773e-04
1446206202191366,1446206202128865,4.464011e-01,-3.143700e-03,-2.937117e-02,7.084569e-04,2.456611e-03,3.107338e-04
1446206202253869,1446206202191366,4.413132e-01,-2.082894e-03,-2.973105e-02,7.666521e-04,2.208612e-03,6.939058e-05
1446206202316369,1446206202253869,4.429863e-01,1.683640e-04,-2.832560e-02,2.181135e-03,2.763095e-03,-5.114827e-04
1446206202378868,1446206202316369,4.414046e-01,2.473680e-03,-2.695333e-02,2.647212e-03,2.927836e-03,-7.989114e-04
1446206202441370,1446206202378868,4.421749e-01,-7.159588e-04,-2.383515e-02,1.846196e-04,9.590976e-04,-2.712095e-04
1446206202503869,1446206202441370,4.447226e-01,-1.700632e-03,-2.220759e-02,1.082977e-03,-9.607865e-04,2.031475e-04
1446206202566370,1446206202503869,4.439359e-01,-2.288688e-03,-2.402394e-02,3.442293e-04,-2.286722e-03,-2.102799e-04
1446206202628871,1446206202566370,4.439468e-01,-3.768563e-03,-2.415117e-02,-1.386879e-03,-2.825383e-03,-6.617184e-04
1446206202691370,1446206202628871,4.418884e-01,-1.723236e-03,-2.617317e-02,-4.215837e-04,-2.719660e-03,-8.863113e-04
1446206202753872,1446206202691370,4.406138e-01,-3.028633e-03,-2.743882e-02,-9.513925e-04,-2.115841e-03,-7.556621e-04
1446206202816373,1446206202753872,4.401201e-01,-3.724550e-03,-2.676503e-02,-1.062745e-03,-1.373553e-03,-4.114188e-04
1446206202878872,1446206202816373,4.372966e-01,-4.099550e-03,-2.617330e-02,-1.694856e-03,-8.089226e-04,-4.971312e-04
1446206202941372,1446206202878872,4.352682e-01,-3.016204e-03,-2.572472e-02,-4.045865e-04,-1.008976e-04,-6.209746e-04
1446206203003874,1446206202941372,4.345780e-01,-2.825861e-03,-2.486184e-02,-6.661790e-04,-4.400221e-04,-4.958737e-04
1446206203066376,1446206203003874,4.376041e-01,-4.155025e-03,-2.422947e-02,-6.058651e-04,-7.177638e-04,-3.113928e-04
1446206203128877,1446206203066376,4.349905e-01,-6.102864e-03,-2.502837e-02,-2.596226e-03,-5.735890e-04,-1.351545e-04
1446206203191375,1446206203128877,4.348667e-01,-8.049945e-03,-2.509139e-02,-4.002869e-03,-1.162074e-03,-2.228694e-04
1446206203253877,1446206203191375,4.311983e-01,-6.016712e-03,-2.549717e-02,-1.910259e-03,-4.404292e-04,-2.294583e-04
1446206203316377,1446206203253877,4.285745e-01,-4.186723e-03,-2.851432e-02,-5.902372e-04,2.812117e-04,-3.498454e-04
1446206203378877,1446206203316377,4.295780e-01,6.530179e-04,-2.769723e-02,3.353514e-03,4.776915e-04,-8.357353e-04
1446206203441378,1446206203378877,4.261201e-01,5.330219e-04,-2.599553e-02,3.439152e-04,4.446568e-05,-8.876472e-04
1446206203503879,1446206203441378,4.271112e-01,-6.554454e-03,-2.559114e-02,-4.484131e-03,1.163866e-04,-2.878958e-04
1446206203566379,1446206203503879,4.212507e-01,-8.130880e-03,-2.761081e-02,-3.902420e-03,1.810952e-03,-5.435598e-06
1446206203628880,1446206203566379,4.198700e-01,-4.660757e-03,-2.574554e-02,1.040106e-03,2.102727e-03,-3.596225e-04
1446206203691381,1446206203628880,4.175472e-01,-2.705381e-03,-2.778083e-02,1.058266e-03,1.935021e-03,-1.114431e-03
1446206203753881,1446206203691381,4.161247e-01,1.498537e-03,-2.907553e-02,3.559815e-03,2.628094e-03,-1.619510e-03
1446206203816383,1446206203753881,4.145700e-01,6.539976e-03,-2.682886e-02,6.521842e-03,2.179123e-03,-1.567771e-03
1446206203878883,1446206203816383,4.164693e-01,3.863628e-03,-2.120135e-02,4.021046e-03,-4.730034e-04,-6.488218e-04
1446206203941386,1446206203878883,4.209934e-01,-7.112884e-03,-1.795840e-02,-4.319773e-03,-3.803040e-03,1.610492e-04
1446206204003884,1446206203941386,4.175670e-01,-9.056486e-03,-1.935507e-02,-3.305605e-03,-4.030566e-03,-2.795608e-04
1446206204066384,1446206204003884,4.135763e-01,-9.648642e-03,-2.246281e-02,-3.111652e-03,-2.821974e-03,-1.030736e-03
1446206204128885,1446206204066384,4.132086e-01,-8.756180e-03,-2.375052e-02,-3.385118e-03,-3.411221e-03,-1.149134e-03
1446206204191389,1446206204128885,4.108043e-01,-9.373363e-03,-2.895494e-02,-4.346388e-03,-2.131890e-03,-1.172683e-03
1446206204253886,1446206204191389,4.023383e-01,-4.171355e-04,-3.370849e-02,2.877891e-03,1.650463e-03,-1.730688e-03
1446206204316395,1446206204253886,3.973811e-01,2.877635e-03,-3.295178e-02,4.471456e-03,4.505489e-03,-1.692182e-03
1446206204378888,1446206204316395,3.984209e-01,1.253187e-03,-2.718878e-02,2.444732e-03,3.744856e-03,-7.561220e-04
1446206204441389,1446206204378888,3.997233e-01,-5.230289e-03,-2.258517e-02,-2.588112e-03,2.248474e-03,-4.174409e-04
1446206204503889,1446206204441389,3.966295e-01,-7.999527e-03,-2.159341e-02,-2.903841e-03,1.217377e-03,-6.439045e-04
1446206204566389,1446206204503889,3.977785e-01,-8.863037e-03,-2.224873e-02,-3.534535e-03,2.145258e-03,-6.574669e-04
1446206204628889,1446206204566389,3.920108e-01,-7.840065e-03,-2.307753e-02,-2.213737e-03,7.787575e-04,-6.880021e-04
1446206204691387,1446206204628889,4.014079e-01,-3.124892e-03,-2.297747e-02,7.772005e-04,-1.575999e-03,-1.281533e-03
1446206204753890,1446206204691387,3.993750e-01,-1.048810e-03,-2.306015e-02,1.455508e-03,-2.891607e-03,-1.972414e-03
1446206204816388,1446206204753890,3.955573e-01,3.877291e-05,-2.192069e-02,9.160858e-04,-1.919010e-03,-1.812939e-03
1446206204878888,1446206204816388,3.993665e-01,-3.178140e-03,-2.228588e-02,-2.765617e-05,-1.196865e-03,-7.390114e-04
1446206204941394,1446206204878888,3.946092e-01,-4.933579e-03,-2.164314e-02,1.392152e-03,-2.324064e-03,-6.603364e-04
1446206205003894,1446206204941394,3.910161e-01,-6.383810e-03,-2.274906e-02,-1.029696e-03,-2.542620e-03,-1.059874e-03
1446206205066392,1446206205003894,3.907700e-01,-6.300654e-03,-2.436342e-02,-2.604560e-03,-1.819719e-03,-1.315543e-03
1446206205128893,1446206205066392,3.832572e-01,-5.647114e-03,-2.512718e-02,-1.582393e-03,1.865529e-04,-1.505663e-03
1446206205191393,1446206205128893,3.778348e-01,-7.668299e-03,-2.371116e-02,-2.092528e-03,2.329724e-04,-1.593668e-03
1446206205253895,1446206205191393,3.729412e-01,-7.519395e-03,-2.293711e-02,-1.260099e-03,8.087955e-04,-1.964195e-03
1446206205316394,1446206205253895,3.733331e-01,-8.489850e-03,-2.505150e-02,-1.695436e-04,1.510527e-03,-2.490996e-03
1446206205378895,1446206205316394,3.701907e-01,-5.571066e-03,-2.282231e-02,1.604720e-03,2.245904e-03,-3.185565e-03
1446206205441396,1446206205378895,3.654291e-01,-5.297735e-03,-2.161910e-02,1.155481e-03,1.630000e-03,-3.337786e-03
1446206205503896,1446206205441396,3.602213e-01,-4.967547e-03,-2.201511e-02,5.997855e-05,5.176647e-04,-2.988137e-03
1446206205566396,1446206205503896,3.582975e-01,-6.880111e-03,-2.258375e-02,7.859224e-04,2.523120e-04,-2.551020e-03
1446206205628898,1446206205566396,3.527559e-01,-6.183570e-03,-2.326349e-02,7.581418e-04,1.091710e-03,-2.455671e-03
1446206205691398,1446206205628898,3.514312e-01,-9.026149e-03,-1.994682e-02,-3.669209e-04,1.352784e-04,-2.412067e-03
1446206205753904,1446206205691398,3.465461e-01,-9.424205e-03,-1.977521e-02,-1.267897e-03,8.332630e-05,-2.639337e-03
1446206205816399,1446206205753904,3.427973e-01,-8.964450e-03,-1.987943e-02,-6.183266e-04,-2.221346e-04,-2.692864e-03
1446206205878901,1446206205816399,3.346805e-01,-8.867336e-03,-2.057554e-02,-7.583060e-04,-2.064168e-04,-2.804792e-03
1446206205941400,1446206205878901,3.299514e-01,-5.278950e-03,-2.121492e-02,1.454664e-03,4.198891e-04,-2.985362e-03
1446206206003901,1446206205941400,3.266794e-01,-5.746347e-03,-2.049933e-02,1.181142e-03,-3.271363e-05,-2.819456e-03
1446206206066401,1446206206003901,3.217591e-01,-2.579666e-03,-2.005927e-02,1.806837e-03,-6.806746e-04,-2.842600e-03
1446206206128902,1446206206066401,3.164560e-01,-3.844118e-03,-2.128298e-02,9.750380e-04,-5.657474e-04,-2.479204e-03
1446206206191402,1446206206128902,3.100742e-01,-3.651584e-03,-1.999042e-02,7.257618e-04,-9.416093e-06,-2.016588e-03
1446206206253904,1446206206191402,3.081605e-01,-5.290274e-03,-1.843770e-02,-6.603346e-04,-3.397213e-04,-1.191009e-03
1446206206316403,1446206206253904,3.021915e-01,-3.740016e-03,-1.834919e-02,8.199940e-04,-8.529931e-04,-7.914699e-04
1446206206378905,1446206206316403,2.964794e-01,-2.383193e-03,-1.661042e-02,9.097117e-05,-1.017261e-03,-5.218827e-04
1446206206441407,1446206206378905,2.933493e-01,-3.350951e-03,-1.719540e-02,-1.606622e-03,-7.491910e-04,-2.859520e-04
1446206206503907,1446206206441407,2.871488e-01,-3.245633e-03,-1.836606e-02,-6.416166e-04,-1.441485e-04,8.636069e-05
1446206206566406,1446206206503907,2.827630e-01,-3.742422e-03,-1.975374e-02,-1.724701e-03,1.264877e-03,4.262114e-04
1446206206628905,1446206206566406,2.801867e-01,-2.730228e-03,-1.835605e-02,-1.394415e-03,7.666907e-04,7.710437e-04
1446206206691406,1446206206628905,2.763141e-01,-8.704087e-04,-1.747214e-02,-7.385870e-04,-6.261897e-04,1.110396e-03
1446206206753907,1446206206691406,2.755304e-01,-7.094824e-05,-1.562467e-02,-4.822055e-04,-2.164345e-03,1.092493e-03
1446206206816407,1446206206753907,2.747415e-01,3.425142e-03,-1.215413e-02,2.605805e-03,-3.938725e-03,1.016044e-03
1446206206878909,1446206206816407,2.728430e-01,6.675981e-03,-1.002680e-02,4.592955e-03,-5.737601e-03,1.249176e-03
1446206206941410,1446206206878909,2.700330e-01,1.064546e-02,-1.195034e-02,5.631766e-03,-3.542492e-03,1.997799e-03
1446206207003910,1446206206941410,2.600244e-01,4.699377e-03,-1.700433e-02,-1.360196e-03,6.786120e-04,3.414700e-03
1446206207066411,1446206207003910,2.528425e-01,-4.454151e-03,-2.216603e-02,-8.420214e-03,4.785386e-03,4.244618e-03
1446206207128912,1446206207066411,2.497740e-01,-6.651328e-03,-2.358864e-02,-6.712964e-03,4.543994e-03,4.434807e-03
1446206207191411,1446206207128912,2.494342e-01,-5.148199e-03,-2.114435e-02,-5.911058e-03,7.794810e-04,4.858155e-03
1446206207253912,1446206207191411,2.512751e-01,6.627016e-04,-1.795352e-02,-3.902316e-03,-1.918955e-03,5.572732e-03
1446206207316413,1446206207253912,2.493466e-01,9.064507e-03,-1.667641e-02,8.658528e-06,-2.682514e-03,6.047709e-03
1446206207378914,1446206207316413,2.463085e-01,1.487765e-02,-1.503476e-02,3.964217e-03,-1.751944e-03,6.136194e-03
1446206207441414,1446206207378914,2.419747e-01,2.140088e-02,-1.343363e-02,9.015855e-03,1.376366e-04,6.006754e-03
1446206207503914,1446206207441414,2.398867e-01,2.428105e-02,-9.079675e-03,9.978185e-03,1.000654e-03,6.736679e-03
1446206207566415,1446206207503914,2.348227e-01,1.520178e-02,-7.443633e-03,-3.465284e-04,3.176140e-03,7.452822e-03
1446206207628915,1446206207566415,2.302260e-01,1.217845e-02,-9.893467e-03,-1.710566e-03,4.537443e-03,8.386963e-03
1446206207691416,1446206207628915,2.281193e-01,9.804688e-03,-1.094620e-02,-2.023917e-03,1.895351e-03,9.974596e-03
1446206207753918,1446206207691416,2.315953e-01,7.772037e-03,-1.273855e-02,-2.542981e-03,-3.665100e-03,1.093047e-02
1446206207816418,1446206207753918,2.289505e-01,8.550419e-03,-1.636282e-02,-2.734458e-03,-4.482692e-03,1.080077e-02
1446206207878918,1446206207816418,2.206289e-01,6.461423e-03,-2.006894e-02,-7.036790e-03,-1.595497e-03,9.998106e-03
1446206207941419,1446206207878918,2.148054e-01,7.556192e-03,-2.209165e-02,-7.117996e-03,1.384779e-03,1.060959e-02
1446206208003919,1446206207941419,2.099228e-01,1.442824e-02,-2.012065e-02,-2.587129e-03,2.933502e-03,1.208930e-02
1446206208066420,1446206208003919,2.082616e-01,1.970338e-02,-1.580388e-02,-2.205005e-04,2.400916e-03,1.436462e-02
1446206208128922,1446206208066420,2.061068e-01,2.709538e-02,-1.278379e-02,3.744575e-03,2.097501e-03,1.547659e-02
1446206208191423,1446206208128922,2.061881e-01,3.848969e-02,-1.263973e-02,1.032228e-02,2.762430e-03,1.608372e-02
1446206208253924,1446206208191423,2.050020e-01,4.501067e-02,-8.532956e-03,1.325356e-02,3.291823e-03,1.677137e-02
1446206208316423,1446206208253924,2.034742e-01,3.880611e-02,-7.518458e-03,5.808458e-03,5.094838e-03,1.831017e-02
1446206208378922,1446206208316423,2.058890e-01,2.796871e-02,-7.641593e-03,-1.763827e-03,3.667369e-03,1.882397e-02
1446206208441423,1446206208378922,2.092494e-01,2.266053e-02,-9.146993e-03,-2.050052e-03,1.832146e-03,1.842950e-02
1446206208503924,1446206208441423,2.127869e-01,1.720030e-02,-8.133716e-03,-5.287181e-03,-1.375743e-03,1.868764e-02
1446206208566423,1446206208503924,2.153495e-01,1.690360e-02,-6.190010e-03,-7.369903e-03,-3.791228e-03,1.916228e-02
1446206208628924,1446206208566423,2.146785e-01,2.473068e-02,-6.902038e-03,-2.483528e-03,-2.924737e-03,1.931006e-02
1446206208691426,1446206208628924,2.104189e-01,3.439494e-02,-6.966429e-03,1.503921e-03,-1.207385e-04,1.969377e-02
1446206208753925,1446206208691426,2.105836e-01,3.862740e-02,-8.210907e-03,2.929592e-03,1.566112e-05,2.137721e-02
1446206208816426,1446206208753925,2.099201e-01,3.801740e-02,-9.257839e-03,1.567301e-03,-1.349983e-03,2.290268e-02
1446206208878927,1446206208816426,2.110797e-01,3.617878e-02,-1.164647e-02,9.876728e-04,-2.072278e-03,2.295508e-02
1446206208941427,1446206208878927,2.131566e-01,3.483333e-02,-1.173049e-02,3.790923e-04,-1.750426e-03,2.150776e-02
1446206209003928,1446206208941427,2.120740e-01,3.873262e-02,-1.264635e-02,2.221958e-03,-3.010264e-03,2.050750e-02
1446206209066428,1446206209003928,2.120672e-01,4.440996e-02,-1.116254e-02,4.907742e-03,-3.216959e-03,2.179703e-02
1446206209128929,1446206209066428,2.111357e-01,4.739403e-02,-9.733760e-03,5.298397e-03,-2.342190e-03,2.370436e-02
1446206209191433,1446206209128929,2.106190e-01,4.728554e-02,-1.128418e-02,4.497568e-03,-2.584227e-03,2.483955e-02
1446206209253932,1446206209191433,2.127557e-01,4.356610e-02,-1.192366e-02,1.926538e-03,-3.014794e-03,2.550377e-02
1446206209316430,1446206209253932,2.154606e-01,3.954784e-02,-9.194339e-03,-2.529126e-04,-3.181260e-03,2.534632e-02
1446206209378934,1446206209316430,2.186574e-01,3.864591e-02,-6.368670e-03,1.103013e-04,-2.966917e-03,2.465454e-02
1446206209441432,1446206209378934,2.176002e-01,3.606794e-02,-7.125766e-03,-4.257217e-03,-1.240877e-03,2.491117e-02
1446206209503933,1446206209441432,2.156254e-01,3.855363e-02,-1.004086e-02,-1.910999e-03,1.319624e-03,2.482345e-02
1446206209566434,1446206209503933,2.147321e-01,4.218988e-02,-1.568120e-02,1.268561e-03,3.001714e-03,2.524419e-02
1446206209628934,1446206209566434,2.174359e-01,3.867642e-02,-1.708060e-02,-3.271870e-03,2.462438e-03,2.578487e-02
1446206209691435,1446206209628934,2.218235e-01,3.636962e-02,-1.585992e-02,-5.326569e-03,4.468718e-05,2.559127e-02
1446206209753935,1446206209691435,2.231429e-01,3.980255e-02,-1.489657e-02,1.775332e-04,-9.176702e-04,2.443883e-02
1446206209816435,1446206209753935,2.248954e-01,4.768135e-02,-1.382232e-02,6.914097e-03,-1.486019e-03,2.416203e-02
1446206209878935,1446206209816435,2.248027e-01,4.943918e-02,-1.239030e-02,6.817236e-03,-1.806760e-03,2.401464e-02
1446206209941436,1446206209878935,2.216245e-01,4.762457e-02,-1.188574e-02,4.774991e-03,-3.426024e-04,2.308541e-02
1446206210003936,1446206209941436,2.178875e-01,4.826827e-02,-1.342597e-02,7.179120e-03,2.584128e-03,2.177693e-02
1446206210066438,1446206210003936,2.154074e-01,4.258296e-02,-1.363885e-02,4.715254e-03,4.678772e-03,2.144869e-02
1446206210128939,1446206210066438,2.151936e-01,3.601714e-02,-1.289815e-02,5.624691e-04,5.614587e-03,2.131974e-02
1446206210191437,1446206210128939,2.149954e-01,3.155363e-02,-1.163716e-02,-4.868523e-04,5.068900e-03,2.093358e-02
1446206210253944,1446206210191437,2.181165e-01,2.972315e-02,-9.794886e-03,-4.578166e-04,2.847204e-03,1.946640e-02
1446206210316440,1446206210253944,2.178110e-01,2.732173e-02,-9.907705e-03,-1.709436e-03,1.269651e-03,1.811898e-02
1446206210378940,1446206210316440,2.191888e-01,2.603578e-02,-9.487547e-03,-2.072834e-03,-1.730097e-04,1.737542e-02
1446206210441441,1446206210378940,2.174065e-01,2.478059e-02,-1.041440e-02,-1.099186e-03,-8.081366e-04,1.709177e-02
1446206210503941,1446206210441441,2.182775e-01,2.432039e-02,-1.097120e-02,-8.848876e-06,-1.375762e-03,1.610404e-02
1446206210566443,1446206210503941,2.175666e-01,2.562431e-02,-9.975829e-03,2.496244e-03,-1.607368e-03,1.415292e-02
1446206210628943,1446206210566443,2.166275e-01,2.950771e-02,-1.032434e-02,5.655533e-03,-2.471232e-03,1.222728e-02
1446206210691443,1446206210628943,2.146020e-01,3.038069e-02,-1.111147e-02,6.751634e-03,-2.823430e-03,1.154517e-02
1446206210753943,1446206210691443,2.108408e-01,2.719240e-02,-1.089173e-02,5.345268e-03,-2.461707e-03,1.068417e-02
1446206210816445,1446206210753943,2.056374e-01,2.274693e-02,-1.130423e-02,4.825456e-03,-2.016579e-03,9.375134e-03
1446206210878948,1446206210816445,1.997910e-01,1.606958e-02,-1.143623e-02,1.989081e-03,-2.007796e-03,8.422136e-03
1446206210941448,1446206210878948,1.944281e-01,1.043171e-02,-1.147174e-02,7.981929e-06,-1.623391e-03,7.412444e-03
1446206211003945,1446206210941448,1.871436e-01,6.995854e-03,-1.122298e-02,-8.253968e-04,-8.166356e-04,6.287836e-03
1446206211066448,1446206211003945,1.809820e-01,5.532013e-03,-1.041461e-02,-8.764218e-04,-6.195917e-04,5.053468e-03
1446206211128947,1446206211066448,1.745546e-01,5.344746e-03,-1.064734e-02,1.672343e-04,-6.595869e-04,3.840141e-03
1446206211191448,1446206211128947,1.681942e-01,4.221800e-03,-1.026855e-02,3.840450e-04,-2.907332e-04,2.716952e-03
1446206211253948,1446206211191448,1.632903e-01,3.439400e-03,-1.063808e-02,1.041879e-03,9.336370e-05,1.778322e-03
1446206211316450,1446206211253948,1.593919e-01,3.071809e-03,-1.034388e-02,1.188110e-03,-2.186946e-04,1.361951e-03
1446206211378950,1446206211316450,1.564479e-01,2.213758e-03,-9.950236e-03,1.047110e-03,-7.373281e-04,1.408628e-03
1446206211441452,1446206211378950,1.524713e-01,1.385038e-03,-9.524950e-03,4.356790e-04,-6.974997e-04,1.272646e-03
1446206211503965,1446206211441452,1.480082e-01,1.202530e-03,-9.257595e-03,1.071586e-03,1.675438e-04,6.273278e-04
1446206211566451,1446206211503965,1.448367e-01,9.718019e-04,-8.613418e-03,1.573998e-03,1.111637e-03,-6.578883e-05
1446206211628953,1446206211566451,1.420308e-01,9.225072e-04,-7.946359e-03,7.951132e-04,9.930304e-04,-2.137661e-04
1446206211691458,1446206211628953,1.396241e-01,3.830177e-04,-8.051760e-03,4.029346e-04,2.835732e-04,1.524850e-04
1446206211753954,1446206211691458,1.371472e-01,-2.141458e-04,-8.498994e-03,1.046016e-03,-8.343567e-06,2.802385e-04
1446206211816457,1446206211753954,1.345088e-01,-7.763819e-04,-8.211705e-03,8.183894e-04,-2.346971e-04,-1.398846e-04
1446206211878957,1446206211816457,1.334820e-01,-4.399683e-03,-6.871004e-03,-2.395786e-03,-4.578236e-04,-4.308643e-04
1446206211941457,1446206211878957,1.321316e-01,-5.970558e-03,-5.650523e-03,-2.750711e-03,-6.612253e-04,-1.011751e-03
1446206212003956,1446206211941457,1.296183e-01,-4.117577e-03,-6.893808e-03,3.075015e-04,-1.415395e-04,-1.515027e-03
1446206212066457,1446206212003956,1.278259e-01,-2.908374e-03,-8.294190e-03,5.031290e-04,9.704617e-04,-1.685606e-03
1446206212128957,1446206212066457,1.264560e-01,-2.298492e-03,-9.139257e-03,6.482349e-04,1.346020e-03,-1.702735e-03
1446206212191456,1446206212128957,1.259815e-01,-7.746955e-04,-9.114458e-03,2.235638e-03,1.040186e-03,-2.036833e-03
1446206212253960,1446206212191456,1.258939e-01,-9.670623e-04,-8.584927e-03,2.859662e-03,6.970130e-04,-2.398092e-03
1446206212316460,1446206212253960,1.247265e-01,-1.819286e-03,-7.938775e-03,2.192068e-03,4.230516e-04,-2.756903e-03
1446206212378960,1446206212316460,1.246956e-01,-3.420919e-03,-7.167411e-03,1.354377e-03,-9.420772e-07,-3.019896e-03
1446206212441459,1446206212378960,1.234078e-01,-5.859725e-03,-7.278591e-03,2.088885e-04,-1.314169e-05,-3.251989e-03
1446206212503962,1446206212441459,1.229319e-01,-6.544711e-03,-7.312817e-03,8.896148e-04,3.511801e-04,-3.859217e-03
1446206212566464,1446206212503962,1.215436e-01,-6.689482e-03,-7.517549e-03,1.148806e-03,6.133988e-04,-4.355101e-03
1446206212628960,1446206212566464,1.202388e-01,-6.339624e-03,-7.348343e-03,5.019928e-04,7.822156e-04,-4.356040e-03
1446206212691466,1446206212628960,1.206714e-01,-6.278680e-03,-6.906320e-03,4.241893e-04,6.480367e-04,-4.072378e-03
1446206212753963,1446206212691466,1.211913e-01,-6.249937e-03,-6.386085e-03,2.714537e-04,3.632578e-04,-3.879750e-03
1446206212816465,1446206212753963,1.217444e-01,-6.932374e-03,-6.238706e-03,2.073932e-04,4.437381e-04,-3.958840e-03
1446206212878963,1446206212816465,1.216053e-01,-7.240080e-03,-6.740743e-03,-6.754187e-05,6.418469e-04,-4.033011e-03
1446206212941466,1446206212878963,1.226068e-01,-6.703626e-03,-6.988952e-03,-1.206736e-04,4.851178e-04,-3.990781e-03
1446206213003964,1446206212941466,1.249137e-01,-6.193243e-03,-6.870613e-03,6.851752e-05,3.159765e-04,-3.375790e-03
1446206213066466,1446206213003964,1.271205e-01,-5.216284e-03,-6.517242e-03,4.813537e-04,-2.815970e-04,-2.509655e-03
1446206213128967,1446206213066466,1.280485e-01,-3.430840e-03,-6.059529e-03,6.722831e-04,-4.777140e-04,-2.315515e-03
1446206213191468,1446206213128967,1.290972e-01,-3.382216e-03,-6.283367e-03,7.627744e-04,-7.934147e-05,-2.199552e-03
1446206213253968,1446206213191468,1.306387e-01,-5.089442e-03,-5.826682e-03,-8.802805e-04,6.870368e-05,-1.853038e-03
1446206213316471,1446206213253968,1.317571e-01,-7.539775e-03,-4.820240e-03,-1.977666e-03,2.041182e-04,-2.147471e-03
1446206213378969,1446206213316471,1.332496e-01,-5.709914e-03,-6.213839e-03,1.020745e-03,-2.411598e-04,-3.075441e-03
1446206213441475,1446206213378969,1.335355e-01,-4.995781e-03,-7.899034e-03,1.417103e-03,-2.246710e-04,-4.010498e-03
1446206213503969,1446206213441475,1.350669e-01,-5.354290e-03,-8.570308e-03,7.137934e-04,-2.802423e-05,-4.304602e-03
1446206213566471,1446206213503969,1.364371e-01,-4.091394e-03,-8.613083e-03,1.918577e-03,-1.388342e-04,-4.113293e-03
1446206213628971,1446206213566471,1.377211e-01,-4.821719e-03,-8.182206e-03,2.063925e-03,-4.024084e-05,-3.794837e-03
1446206213691473,1446206213628971,1.383547e-01,-5.527199e-03,-7.628827e-03,1.472305e-03,1.102854e-04,-4.290707e-03
1446206213753973,1446206213691473,1.398431e-01,-7.149462e-03,-8.620295e-03,4.822525e-04,4.180053e-04,-4.369539e-03
1446206213816474,1446206213753973,1.404837e-01,-6.712887e-03,-8.476501e-03,-2.584051e-04,9.271341e-04,-4.347575e-03
1446206213878972,1446206213816474,1.432297e-01,-6.090700e-03,-8.318118e-03,5.846296e-04,9.426808e-05,-3.850178e-03
1446206213941473,1446206213878972,1.462472e-01,-6.253230e-03,-7.371209e-03,2.881744e-04,-8.808423e-04,-3.512507e-03
1446206214003974,1446206213941473,1.476839e-01,-6.818263e-03,-7.276679e-03,3.599452e-04,-6.756245e-04,-3.352206e-03
1446206214066473,1446206214003974,1.492772e-01,-7.172077e-03,-7.006608e-03,-7.250966e-05,-3.793213e-04,-3.530368e-03
1446206214128973,1446206214066473,1.512923e-01,-7.129041e-03,-7.339869e-03,-4.009368e-04,-1.850237e-04,-3.607374e-03
1446206214191475,1446206214128973,1.525158e-01,-6.742648e-03,-7.939863e-03,-1.565582e-04,2.016853e-04,-3.558531e-03
1446206214253975,1446206214191475,1.555027e-01,-5.248636e-03,-8.658960e-03,1.085339e-03,2.003878e-04,-3.456858e-03
1446206214316476,1446206214253975,1.577179e-01,-4.545141e-03,-8.170899e-03,7.669242e-04,1.023733e-04,-3.293232e-03
1446206214378976,1446206214316476,1.597333e-01,-4.327194e-03,-7.559711e-03,4.863696e-04,1.598960e-04,-2.475338e-03
1446206214441479,1446206214378976,1.619991e-01,-4.253027e-03,-7.585877e-03,-4.632731e-07,5.575230e-04,-1.896299e-03
1446206214503976,1446206214441479,1.626879e-01,-5.230990e-03,-8.580648e-03,-7.202232e-04,1.006526e-03,-1.985867e-03
1446206214566478,1446206214503976,1.653327e-01,-2.747782e-03,-9.368462e-03,4.167432e-04,1.574850e-04,-2.193337e-03
1446206214628978,1446206214566478,1.696470e-01,-1.457875e-03,-8.959447e-03,8.315353e-05,-1.034040e-03,-1.319071e-03
1446206214691480,1446206214628978,1.732994e-01,3.002985e-04,-8.232937e-03,7.764971e-04,-1.107626e-03,-3.304212e-04
1446206214753981,1446206214691480,1.761494e-01,2.610406e-04,-8.231569e-03,7.553225e-04,-1.000464e-03,4.404608e-04
1446206214816481,1446206214753981,1.798544e-01,-9.433989e-05,-8.106467e-03,9.835073e-04,-4.967599e-04,9.112350e-04
1446206214878981,1446206214816481,1.825309e-01,1.724161e-03,-1.013885e-02,1.928873e-03,-8.868472e-04,8.231019e-04
1446206214941483,1446206214878981,1.869899e-01,3.716767e-03,-1.024915e-02,1.906203e-03,-1.140303e-03,1.363232e-04
1446206215003983,1446206214941483,1.916200e-01,2.382426e-03,-8.744148e-03,-5.202690e-04,-1.424897e-03,5.333553e-04
1446206215066485,1446206215003983,1.940926e-01,4.462213e-03,-9.436817e-03,2.133796e-03,-5.339140e-04,1.166292e-03
1446206215128981,1446206215066485,1.958447e-01,5.464839e-03,-1.105789e-02,3.665417e-03,8.496691e-04,1.499066e-03
1446206215191486,1446206215128981,2.009750e-01,2.427423e-03,-1.165861e-02,1.925375e-04,7.073971e-04,1.943227e-03
1446206215253987,1446206215191486,2.053570e-01,2.885504e-04,-1.099281e-02,-1.409731e-03,2.588011e-04,1.272317e-03
1446206215316488,1446206215253987,2.102567e-01,-1.715742e-03,-1.072577e-02,-1.373619e-03,-4.575013e-04,2.099561e-04
1446206215378988,1446206215316488,2.158275e-01,-4.567415e-03,-9.623009e-03,-3.353571e-03,-1.683140e-03,1.896168e-04
1446206215441486,1446206215378988,2.207576e-01,-6.445480e-03,-1.009263e-02,-3.729728e-03,-2.649477e-03,3.422905e-04
1446206215503991,1446206215441486,2.238614e-01,-4.852821e-03,-1.099731e-02,-2.459075e-03,-1.697121e-03,4.858089e-04
1446206215566490,1446206215503991,2.273979e-01,-4.738808e-03,-1.128139e-02,-3.180715e-03,-5.006595e-04,5.891441e-04
1446206215628987,1446206215566490,2.298357e-01,1.742156e-04,-1.323645e-02,1.245998e-03,1.202793e-03,4.873501e-04
1446206215691490,1446206215628987,2.338770e-01,2.988246e-03,-1.393268e-02,3.338509e-03,1.585357e-03,-9.379583e-04
1446206215753990,1446206215691490,2.365727e-01,7.904255e-03,-1.593833e-02,6.803447e-03,2.396956e-03,-1.051881e-03
1446206215816490,1446206215753990,2.422726e-01,7.242397e-03,-1.438440e-02,4.433954e-03,2.325901e-03,6.171795e-05
1446206215878990,1446206215816490,2.476450e-01,3.809354e-03,-1.230832e-02,2.470431e-03,1.974934e-04,-9.904328e-05
1446206215941492,1446206215878990,2.548097e-01,-3.097066e-03,-1.083862e-02,-1.378088e-03,-2.158313e-03,-1.172867e-03
1446206216003991,1446206215941492,2.566977e-01,-5.287503e-03,-1.250208e-02,-1.949902e-03,-1.550293e-03,-9.639260e-04
1446206216066494,1446206216003991,2.611524e-01,-8.219956e-03,-1.211101e-02,-4.618038e-03,-8.468327e-04,2.849363e-04
1446206216128994,1446206216066494,2.631963e-01,-8.855028e-03,-1.256161e-02,-4.678536e-03,5.118348e-04,8.407879e-04
1446206216191495,1446206216128994,2.676635e-01,-6.570281e-03,-1.273339e-02,-1.509054e-03,7.274896e-04,5.240529e-04
1446206216253995,1446206216191495,2.706674e-01,-4.481099e-03,-1.212117e-02,-9.065522e-04,4.667406e-04,-5.299419e-04
1446206216316495,1446206216253995,2.778994e-01,-1.543366e-03,-1.269660e-02,5.135445e-04,-1.125776e-03,-1.049491e-03
1446206216378996,1446206216316495,2.799278e-01,3.281468e-03,-1.312220e-02,3.895000e-03,-2.860235e-03,-6.459598e-04
1446206216441497,1446206216378996,2.842389e-01,4.456696e-03,-1.427433e-02,3.628404e-03,-4.681887e-03,-7.992044e-04
1446206216503997,1446206216441497,2.862445e-01,2.209346e-03,-1.531324e-02,1.668879e-03,-3.927088e-03,-7.844067e-04
1446206216566497,1446206216503997,2.857346e-01,-3.346400e-03,-1.491302e-02,-1.373063e-03,-1.372977e-03,5.969873e-04
1446206216628998,1446206216566497,2.848969e-01,-2.932310e-03,-1.753019e-02,2.635351e-04,-8.442410e-06,9.316493e-04
1446206216691499,1446206216628998,2.846534e-01,-6.297136e-03,-1.739504e-02,-3.513857e-03,1.223177e-03,2.737354e-04
1446206216754000,1446206216691499,2.872394e-01,-6.675498e-03,-1.747327e-02,-3.064939e-03,8.475261e-04,-1.028216e-03
1446206216816501,1446206216754000,2.890344e-01,-4.881388e-03,-1.643284e-02,-1.577638e-03,4.096532e-04,-1.060923e-03
1446206216879002,1446206216816501,2.922302e-01,-7.293164e-04,-1.601336e-02,1.395607e-03,-7.146135e-04,-7.086728e-04
1446206216941499,1446206216879002,2.964363e-01,3.868396e-04,-1.378288e-02,1.806048e-03,-1.719170e-03,-1.219161e-04
1446206217004001,1446206216941499,2.975111e-01,3.491908e-03,-1.380964e-02,3.420662e-03,-1.480878e-03,-4.216954e-04
1446206217066503,1446206217004001,2.985882e-01,1.472250e-03,-1.349260e-02,1.972683e-03,-9.552546e-04,8.131590e-05
1446206217129004,1446206217066503,3.027566e-01,-8.729760e-04,-1.378275e-02,7.962681e-04,-1.122492e-03,4.161962e-04
1446206217191504,1446206217129004,3.028848e-01,-1.795461e-03,-1.540787e-02,5.450351e-04,-1.229621e-03,-3.168919e-04
1446206217254003,1446206217191504,3.041275e-01,-2.593559e-03,-1.815338e-02,-7.499336e-04,-1.326928e-03,-7.445028e-04
1446206217316505,1446206217254003,3.067650e-01,-1.889893e-03,-2.004797e-02,-4.229167e-04,-1.373408e-03,-2.185114e-04
1446206217379005,1446206217316505,3.079397e-01,-3.332443e-03,-2.042240e-02,-3.489500e-04,-1.252269e-03,4.192534e-04
1446206217441506,1446206217379005,3.086228e-01,-3.074590e-03,-2.036934e-02,-3.227756e-05,-6.872436e-04,7.180814e-05
1446206217504007,1446206217441506,3.096386e-01,-2.236056e-03,-1.847946e-02,-1.142398e-04,3.398639e-04,-7.089816e-04
1446206217566507,1446206217504007,3.108941e-01,-7.701380e-04,-1.771907e-02,1.023851e-03,1.243332e-03,-1.011306e-03
1446206217629012,1446206217566507,3.127099e-01,-3.971051e-05,-1.695532e-02,1.058347e-03,2.015410e-03,-5.628156e-04
1446206217691508,1446206217629012,3.147017e-01,-1.182752e-03,-1.611568e-02,-3.696174e-04,1.916141e-03,-2.454367e-04
1446206217754010,1446206217691508,3.173977e-01,-6.488376e-04,-1.542624e-02,1.161348e-03,2.757964e-04,-2.598415e-04
1446206217816512,1446206217754010,3.213496e-01,-3.017192e-04,-1.454811e-02,1.897969e-03,-1.519857e-03,-6.834798e-04
1446206217879011,1446206217816512,3.239362e-01,6.117516e-04,-1.558651e-02,1.939738e-03,-2.091644e-03,-1.076981e-03
1446206217941509,1446206217879011,3.256757e-01,-6.379979e-04,-1.765668e-02,1.577091e-03,-1.652225e-03,-1.419150e-03
1446206218004011,1446206217941509,3.258151e-01,-3.161600e-03,-1.812610e-02,-3.441341e-04,-1.403421e-03,-1.574074e-03
1446206218066512,1446206218004011,3.279174e-01,-3.567979e-03,-1.799247e-02,4.029504e-04,-7.877541e-04,-1.422229e-03
1446206218129011,1446206218066512,3.306314e-01,-5.660595e-03,-1.813094e-02,-1.162527e-03,-1.366255e-03,-1.216294e-03
1446206218191512,1446206218129011,3.315040e-01,-5.950806e-03,-1.852555e-02,-1.762683e-03,-1.488462e-03,-1.369712e-03
1446206218254011,1446206218191512,3.335155e-01,-5.551160e-03,-1.854878e-02,-2.463011e-04,-9.249424e-04,-1.461965e-03
1446206218316515,1446206218254011,3.354937e-01,-5.406625e-03,-1.889512e-02,3.537836e-05,-5.032003e-04,-1.865556e-03
1446206218379015,1446206218316515,3.362476e-01,-4.828457e-03,-1.883257e-02,2.713965e-04,4.646409e-04,-2.595392e-03
1446206218441515,1446206218379015,3.377097e-01,-3.605812e-03,-1.854087e-02,6.074042e-04,-8.021591e-05,-2.436271e-03
1446206218504018,1446206218441515,3.399365e-01,-2.974483e-03,-1.848957e-02,5.786208e-04,-2.371086e-04,-1.781451e-03
1446206218566519,1446206218504018,3.412416e-01,-2.782049e-03,-1.886668e-02,1.051121e-03,-4.820872e-04,-1.525145e-03
1446206218629020,1446206218566519,3.410224e-01,-5.195471e-03,-1.824174e-02,-7.260296e-04,-7.545505e-04,-1.677793e-03
1446206218691519,1446206218629020,3.416737e-01,-5.733060e-03,-1.802550e-02,-1.210246e-03,-7.231264e-04,-2.055943e-03
1446206218754019,1446206218691519,3.422971e-01,-4.946430e-03,-1.859900e-02,-9.737448e-04,-4.785034e-04,-2.133473e-03
1446206218816522,1446206218754019,3.433061e-01,-4.494617e-03,-1.968416e-02,-5.178301e-04,1.660636e-04,-1.401517e-03
1446206218879018,1446206218816522,3.455542e-01,-4.987218e-03,-1.972523e-02,-7.769382e-04,5.434289e-04,-1.099701e-03
1446206218941518,1446206218879018,3.467701e-01,-4.554228e-03,-1.918732e-02,-8.918484e-04,6.202106e-05,-1.063892e-03
1446206219004019,1446206218941518,3.495730e-01,-3.491227e-03,-1.917872e-02,8.188095e-04,-2.148821e-04,-1.820352e-03
1446206219066522,1446206219004019,3.528817e-01,-4.313751e-03,-1.777828e-02,-3.158609e-04,-9.285579e-04,-2.279611e-03
1446206219129019,1446206219066522,3.525100e-01,-7.984107e-03,-1.681011e-02,-4.387327e-03,-1.384587e-03,-1.882418e-03
1446206219191520,1446206219129019,3.522835e-01,-7.365210e-03,-1.824179e-02,-3.035401e-03,-2.397904e-04,-1.052772e-03
1446206219254021,1446206219191520,3.529822e-01,-2.797263e-03,-2.215260e-02,1.433408e-03,1.658001e-03,-9.474196e-04
1446206219316522,1446206219254021,3.515798e-01,-1.530469e-04,-2.350918e-02,2.123526e-03,2.081156e-03,-1.177817e-03
1446206219379023,1446206219316522,3.557641e-01,-4.502317e-04,-2.297193e-02,-8.437885e-05,9.906500e-04,-8.856010e-04
1446206219441523,1446206219379023,3.572233e-01,7.974364e-04,-2.258110e-02,1.006938e-03,1.044702e-03,-5.834433e-04
1446206219504025,1446206219441523,3.598474e-01,1.845838e-03,-2.100172e-02,2.370530e-03,4.093835e-04,1.775902e-04
1446206219566525,1446206219504025,3.631442e-01,-2.390454e-03,-1.725746e-02,-1.293593e-03,1.002474e-04,1.265127e-03
1446206219629028,1446206219566525,3.623137e-01,-5.792199e-03,-1.617413e-02,-3.223538e-03,4.361070e-04,1.332698e-03
1446206219691527,1446206219629028,3.643290e-01,-5.621569e-03,-1.656483e-02,-2.716331e-03,-1.290246e-03,-2.809453e-04
1446206219754026,1446206219691527,3.666607e-01,-2.031629e-03,-1.859495e-02,-1.870932e-04,-2.474134e-03,-1.114429e-03
1446206219816528,1446206219754026,3.679143e-01,-4.363291e-04,-1.965080e-02,5.257731e-04,-3.188043e-03,-6.628437e-04
1446206219879029,1446206219816528,3.672398e-01,2.507706e-03,-2.079362e-02,2.091904e-03,-3.070871e-03,-2.351243e-04
1446206219941528,1446206219879029,3.692986e-01,2.451721e-03,-2.278781e-02,2.745684e-03,-2.731549e-03,-4.513582e-04
1446206220004028,1446206219941528,3.692063e-01,2.737452e-04,-2.308529e-02,6.934696e-04,-1.382951e-03,-2.440272e-04
1446206220066529,1446206220004028,3.693701e-01,-9.790993e-04,-2.137398e-02,-1.442820e-03,-6.127351e-04,-2.430349e-04
1446206220129032,1446206220066529,3.692326e-01,-3.222726e-03,-2.059016e-02,-2.267084e-03,-6.705954e-04,3.068934e-04
1446206220191530,1446206220129032,3.704552e-01,-3.617114e-03,-2.012970e-02,-2.247483e-03,-1.029129e-03,7.917447e-04
1446206220254031,1446206220191530,3.702829e-01,-6.818442e-04,-2.169739e-02,3.398898e-04,-2.936015e-04,2.732760e-04
1446206220316530,1446206220254031,3.718406e-01,-4.710719e-04,-2.043144e-02,9.572814e-05,-2.938929e-04,1.806268e-04
1446206220379032,1446206220316530,3.713089e-01,1.122989e-03,-2.068921e-02,-2.570562e-04,-3.960984e-04,2.965932e-04
1446206220441530,1446206220379032,3.737356e-01,1.121691e-03,-2.033317e-02,3.396146e-04,-3.778893e-04,6.947861e-04
1446206220504032,1446206220441530,3.736448e-01,1.543461e-03,-2.167162e-02,2.911138e-04,-1.301816e-04,1.026231e-03
1446206220566533,1446206220504032,3.750531e-01,1.305015e-03,-2.187626e-02,-3.506019e-04,3.663929e-04,1.558589e-03
1446206220629033,1446206220566533,3.755830e-01,2.348801e-03,-2.254862e-02,7.467306e-04,8.827612e-04,1.657042e-03
1446206220691534,1446206220629033,3.764652e-01,3.555705e-03,-2.203059e-02,5.786488e-04,-4.123050e-04,1.541360e-03
1446206220754035,1446206220691534,3.808548e-01,2.539139e-03,-2.144763e-02,-6.117235e-04,-8.926497e-04,2.007432e-03
1446206220816535,1446206220754035,3.810460e-01,3.950391e-03,-2.123549e-02,1.037422e-04,-6.152527e-04,2.642706e-03
1446206220879036,1446206220816535,3.840918e-01,4.347584e-03,-2.009896e-02,1.969235e-05,-6.051628e-04,3.163797e-03
1446206220941535,1446206220879036,3.835108e-01,4.632688e-03,-2.106167e-02,1.464786e-04,1.842764e-04,3.265583e-03
1446206221004037,1446206220941535,3.852718e-01,5.853144e-03,-2.101282e-02,1.065229e-03,-1.724311e-04,2.902632e-03
1446206221066539,1446206221004037,3.891382e-01,7.410642e-03,-2.087010e-02,2.354409e-03,-1.088848e-03,2.545789e-03
1446206221129038,1446206221066539,3.907000e-01,7.518349e-03,-1.928819e-02,1.031350e-03,-2.968299e-03,3.005330e-03
1446206221191553,1446206221129038,3.904150e-01,7.342796e-03,-2.156993e-02,1.439992e-03,-1.674626e-03,3.029852e-03
1446206221254040,1446206221191553,3.888810e-01,6.877344e-03,-2.466435e-02,1.078060e-03,2.901536e-04,3.068406e-03
1446206221316540,1446206221254040,3.869645e-01,2.373581e-03,-2.506097e-02,-1.973660e-03,1.702140e-03,3.250222e-03
1446206221379044,1446206221316540,3.874760e-01,1.617506e-03,-2.534313e-02,-2.636224e-03,1.999438e-03,3.366882e-03
1446206221441539,1446206221379044,3.871112e-01,4.729583e-03,-2.681467e-02,3.529332e-04,3.171178e-03,3.471665e-03
1446206221504041,1446206221441539,3.873129e-01,7.175477e-03,-2.543220e-02,1.832042e-03,3.370321e-03,3.413984e-03
1446206221566542,1446206221504041,3.876117e-01,8.143187e-03,-2.249686e-02,1.332933e-03,4.241664e-03,3.747624e-03
1446206221629041,1446206221566542,3.888590e-01,7.913618e-03,-2.298384e-02,8.233663e-04,3.196134e-03,3.962590e-03
1446206221691543,1446206221629041,3.894106e-01,4.343302e-03,-2.184559e-02,-2.855892e-03,2.473154e-03,4.094934e-03
1446206221754044,1446206221691543,3.886403e-01,2.594361e-03,-2.177450e-02,-3.697819e-03,2.031188e-03,4.781421e-03
1446206221816546,1446206221754044,3.940129e-01,3.224382e-03,-1.917805e-02,-2.157131e-03,-2.509529e-04,5.633568e-03
1446206221879045,1446206221816546,3.935640e-01,7.320026e-03,-1.984580e-02,-4.037645e-04,-1.787909e-03,5.705246e-03
1446206221941546,1446206221879045,3.922841e-01,1.119096e-02,-2.119280e-02,1.323900e-03,-1.907507e-03,5.703641e-03
1446206222004044,1446206221941546,3.942702e-01,1.484670e-02,-2.040871e-02,2.524694e-03,-1.147007e-03,5.610972e-03
1446206222066547,1446206222004044,3.924730e-01,1.471940e-02,-2.011429e-02,8.634275e-04,-1.999803e-03,6.015276e-03
1446206222129048,1446206222066547,3.947920e-01,1.068867e-02,-2.070000e-02,-9.504732e-04,-3.042942e-03,7.672912e-03
1446206222191549,1446206222129048,3.954691e-01,9.180371e-03,-2.210931e-02,-1.226114e-03,-3.332160e-03,8.548551e-03
1446206222254050,1446206222191549,3.927985e-01,9.209818e-03,-2.206069e-02,-8.295927e-04,-1.159855e-03,8.052551e-03
1446206222316550,1446206222254050,3.917658e-01,7.149548e-03,-2.179950e-02,-2.601559e-03,-1.356812e-03,6.750524e-03
1446206222379048,1446206222316550,3.911061e-01,8.737199e-03,-2.238990e-02,-1.671444e-03,-5.280855e-04,6.056173e-03
1446206222441550,1446206222379048,3.900643e-01,1.054723e-02,-2.296684e-02,-3.163225e-04,1.333089e-04,6.483734e-03
1446206222504049,1446206222441550,3.865373e-01,1.688836e-02,-2.568145e-02,5.396164e-03,1.985274e-03,6.536745e-03
1446206222566550,1446206222504049,3.876711e-01,2.030344e-02,-2.659635e-02,7.946528e-03,3.455061e-03,6.875776e-03
1446206222629053,1446206222566550,3.883176e-01,1.640639e-02,-2.414285e-02,3.119939e-03,2.640322e-03,6.458739e-03
1446206222691553,1446206222629053,3.914605e-01,1.198817e-02,-2.127674e-02,7.939254e-05,8.544129e-05,5.993552e-03
1446206222754052,1446206222691553,3.922048e-01,4.257833e-03,-1.678833e-02,-5.128708e-03,-1.941900e-03,6.509584e-03
1446206222816555,1446206222754052,3.938402e-01,2.569832e-03,-1.650600e-02,-4.829094e-03,-2.747746e-03,6.951148e-03
1446206222879055,1446206222816555,3.924656e-01,1.408276e-03,-1.812519e-02,-3.626304e-03,-1.833187e-03,7.061966e-03
1446206222941553,1446206222879055,3.935660e-01,5.690044e-03,-2.150163e-02,1.426483e-04,-2.459499e-03,5.284884e-03
1446206223004057,1446206222941553,3.903679e-01,1.320827e-02,-2.663527e-02,3.547586e-03,-7.305606e-04,4.158525e-03
1446206223066558,1446206223004057,3.876253e-01,1.667923e-02,-2.818951e-02,3.930732e-03,-9.920900e-05,4.808799e-03
1446206223129057,1446206223066558,3.885198e-01,1.735302e-02,-2.676400e-02,4.495864e-03,9.610773e-04,6.063307e-03
1446206223191560,1446206223129057,3.887682e-01,1.086780e-02,-2.478526e-02,8.393041e-05,2.365792e-03,7.146006e-03
1446206223254059,1446206223191560,3.908563e-01,7.405891e-03,-2.074148e-02,-7.907841e-04,1.799548e-03,6.939137e-03
1446206223316559,1446206223254059,3.886334e-01,5.871970e-03,-2.069302e-02,-1.421616e-03,2.062100e-03,6.526801e-03
1446206223379060,1446206223316559,3.919260e-01,3.331127e-03,-1.855092e-02,-3.240375e-03,3.278122e-04,5.827274e-03
1446206223441559,1446206223379060,3.970317e-01,6.280355e-03,-1.896323e-02,-1.079340e-03,-1.247097e-03,5.402530e-03
1446206223504059,1446206223441559,3.944420e-01,4.298325e-03,-2.035969e-02,-2.700351e-03,-1.134898e-03,5.740722e-03
1446206223566560,1446206223504059,3.932020e-01,9.292725e-03,-2.238974e-02,1.263304e-03,-1.045610e-03,5.978631e-03
1446206223629061,1446206223566560,3.966632e-01,1.083986e-02,-2.273860e-02,-1.707940e-05,5.926736e-04,6.553449e-03
1446206223691562,1446206223629061,3.939626e-01,1.150961e-02,-2.526901e-02,1.474409e-03,1.685835e-03,6.477700e-03
1446206223754062,1446206223691562,3.950415e-01,1.355108e-02,-2.293028e-02,2.321563e-03,9.880296e-04,6.122242e-03
1446206223816565,1446206223754062,3.961692e-01,1.487645e-02,-2.075221e-02,1.760895e-03,1.350620e-03,6.280825e-03
1446206223879066,1446206223816565,3.912917e-01,1.396100e-02,-2.302418e-02,2.727898e-03,2.696196e-03,6.690076e-03
1446206223941564,1446206223879066,3.914539e-01,1.509656e-02,-2.282234e-02,8.058176e-04,2.831290e-03,6.991819e-03
1446206224004065,1446206223941564,3.883884e-01,1.398477e-02,-2.212887e-02,2.966964e-03,2.835679e-03,6.932242e-03
1446206224066568,1446206224004065,3.909144e-01,1.432747e-02,-2.057510e-02,2.030303e-03,1.618109e-03,6.663705e-03
1446206224129066,1446206224066568,3.923843e-01,1.597005e-02,-2.155914e-02,2.574366e-03,4.346188e-04,6.389305e-03
1446206224191567,1446206224129066,3.902055e-01,1.578174e-02,-1.881325e-02,3.348949e-03,-3.207487e-04,6.852919e-03
1446206224254067,1446206224191567,3.917367e-01,1.369727e-02,-1.811505e-02,7.919338e-04,-1.144102e-03,7.058782e-03
1446206224316568,1446206224254067,3.916503e-01,1.707790e-02,-1.804278e-02,3.146713e-03,-1.571056e-03,7.244030e-03
1446206224379066,1446206224316568,3.909521e-01,1.624087e-02,-1.889445e-02,3.589132e-03,-2.645326e-03,7.674720e-03
1446206224441570,1446206224379066,3.930360e-01,1.689243e-02,-2.010935e-02,2.883175e-03,-3.575816e-03,7.493529e-03
1446206224504068,1446206224441570,3.897611e-01,1.723994e-02,-2.016870e-02,4.345180e-03,-2.602712e-03,7.084913e-03
1446206224566570,1446206224504068,3.877089e-01,2.020137e-02,-2.209905e-02,5.228966e-03,-1.448064e-03,7.081537e-03
1446206224629069,1446206224566570,3.869143e-01,2.099153e-02,-2.350872e-02,5.731869e-03,-2.728582e-06,7.445655e-03
1446206224691571,1446206224629069,3.853650e-01,1.805545e-02,-2.480825e-02,2.937020e-03,1.271033e-03,7.830043e-03
1446206224754072,1446206224691571,3.846336e-01,1.528471e-02,-2.268100e-02,1.869415e-03,9.408745e-04,7.927779e-03
1446206224816571,1446206224754072,3.878125e-01,1.328772e-02,-1.973525e-02,-7.207696e-05,1.555042e-05,7.787334e-03
1446206224879075,1446206224816571,3.921471e-01,1.025380e-02,-1.563677e-02,-1.957499e-03,-1.807361e-03,7.642184e-03
1446206224941572,1446206224879075,3.964985e-01,1.130738e-02,-1.354186e-02,-5.417386e-04,-3.724869e-03,7.821709e-03
1446206225004075,1446206224941572,3.986186e-01,1.459546e-02,-1.477111e-02,2.534330e-03,-4.146170e-03,7.566158e-03
1446206225066575,1446206225004075,4.007737e-01,1.828648e-02,-1.853532e-02,4.695062e-03,-4.406189e-03,7.783152e-03
1446206225129076,1446206225066575,4.033622e-01,1.988804e-02,-2.243091e-02,4.333013e-03,-4.988283e-03,8.246231e-03
1446206225191575,1446206225129076,4.046718e-01,1.834722e-02,-2.423560e-02,2.134333e-03,-5.004962e-03,8.813352e-03
1446206225254077,1446206225191575,4.028067e-01,1.360137e-02,-2.615214e-02,-1.456289e-03,-3.115099e-03,9.041177e-03
1446206225316579,1446206225254077,4.002960e-01,1.506920e-02,-2.879136e-02,2.157113e-03,1.792545e-03,9.321922e-03
1446206225379081,1446206225316579,3.959456e-01,1.692875e-02,-2.993977e-02,4.487914e-03,5.601361e-03,8.944035e-03
1446206225441579,1446206225379081,4.007029e-01,1.570991e-02,-2.810688e-02,2.663055e-03,6.635965e-03,8.075248e-03
1446206225504082,1446206225441579,4.015475e-01,1.447497e-02,-2.582332e-02,1.208151e-03,6.468389e-03,7.384982e-03
1446206225566583,1446206225504082,4.014004e-01,1.361686e-02,-2.264831e-02,1.393698e-03,5.561278e-03,7.354776e-03
1446206225629084,1446206225566583,4.034798e-01,1.074020e-02,-1.989145e-02,-1.016709e-03,5.154404e-03,7.820187e-03
1446206225691579,1446206225629084,4.073977e-01,7.037718e-03,-1.725750e-02,-2.947038e-03,3.221481e-03,8.215632e-03
1446206225754080,1446206225691579,4.101555e-01,4.577348e-03,-1.679251e-02,-2.494922e-03,5.159598e-04,7.976215e-03
1446206225816583,1446206225754080,4.091111e-01,1.018259e-02,-1.924689e-02,-1.028597e-03,-4.631980e-04,7.106642e-03
1446206225879081,1446206225816583,4.137048e-01,1.206645e-02,-2.227944e-02,5.181936e-04,-1.378918e-03,7.079511e-03
1446206225941585,1446206225879081,4.098397e-01,1.441696e-02,-2.434538e-02,1.855742e-03,-1.743604e-03,7.221183e-03
1446206226004082,1446206225941585,4.111786e-01,1.297512e-02,-2.371993e-02,7.068279e-04,-1.722254e-03,7.541224e-03
1446206226066584,1446206226004082,4.110767e-01,1.141731e-02,-2.322112e-02,-1.128744e-04,-1.325076e-03,7.765700e-03
1446206226129085,1446206226066584,4.096446e-01,1.064168e-02,-2.274177e-02,-1.499334e-04,-4.506199e-04,7.990663e-03
1446206226191586,1446206226129085,4.090344e-01,8.444245e-03,-2.143616e-02,-1.975638e-03,-1.187145e-03,8.011592e-03
1446206226254085,1446206226191586,4.111683e-01,6.368078e-03,-2.108870e-02,-2.876748e-03,-9.307174e-04,7.700265e-03
1446206226316600,1446206226254085,4.085550e-01,7.776994e-03,-2.344836e-02,-1.684328e-03,1.532429e-04,6.921132e-03
1446206226379088,1446206226316600,4.070724e-01,1.071954e-02,-2.470325e-02,5.108738e-04,1.699572e-03,6.422210e-03
1446206226441590,1446206226379088,4.105583e-01,1.073833e-02,-2.543839e-02,8.975316e-04,2.893739e-03,6.394406e-03
1446206226504087,1446206226441590,4.074729e-01,1.305314e-02,-2.636819e-02,3.322094e-03,2.647028e-03,5.737871e-03
1446206226566591,1446206226504087,4.038773e-01,1.293097e-02,-2.391819e-02,2.136144e-03,1.748864e-03,5.590077e-03
1446206226629088,1446206226566591,4.060501e-01,1.332803e-02,-2.250072e-02,2.359577e-03,1.843170e-03,5.952624e-03
1446206226691591,1446206226629088,4.083741e-01,1.151674e-02,-2.070301e-02,1.243015e-03,1.031597e-03,5.854390e-03
1446206226754092,1446206226691591,4.115963e-01,6.321914e-03,-1.800765e-02,-1.701559e-03,-1.852964e-03,5.593378e-03
1446206226816594,1446206226754092,4.153593e-01,1.908673e-03,-1.616715e-02,-3.607408e-03,-3.994687e-03,4.801834e-03
1446206226879091,1446206226816594,4.099975e-01,8.352389e-03,-2.180409e-02,2.367329e-03,-3.332428e-03,4.354212e-03
1446206226941593,1446206226879091,4.107849e-01,1.198884e-02,-2.544853e-02,4.876057e-03,-1.896465e-03,4.768641e-03
1446206227004092,1446206226941593,4.088086e-01,1.121012e-02,-2.685082e-02,2.702225e-03,3.438581e-04,4.247720e-03
1446206227066595,1446206227004092,4.084674e-01,1.230164e-02,-2.613578e-02,3.735788e-03,-4.090919e-04,3.369265e-03
1446206227129093,1446206227066595,4.105442e-01,8.334874e-03,-2.500644e-02,1.825899e-03,-3.718863e-04,3.100724e-03
1446206227191595,1446206227129093,4.083626e-01,2.944729e-03,-2.180518e-02,-2.065697e-03,9.830324e-04,3.589938e-03
1446206227254096,1446206227191595,4.119686e-01,4.049400e-04,-1.896813e-02,-1.717553e-03,-5.403692e-04,3.941799e-03
1446206227316596,1446206227254096,4.132984e-01,2.012752e-03,-1.860948e-02,-1.011682e-03,-2.248034e-03,3.338455e-03
1446206227379097,1446206227316596,4.111109e-01,4.911327e-03,-2.242958e-02,6.550294e-05,-2.392595e-03,2.926896e-03
1446206227441598,1446206227379097,4.047266e-01,4.339891e-03,-2.762632e-02,-8.309052e-04,-5.306957e-04,3.343152e-03
1446206227504096,1446206227441598,4.041068e-01,7.360423e-03,-3.036806e-02,2.088748e-03,3.807183e-03,3.032512e-03
1446206227566598,1446206227504096,4.038471e-01,7.122481e-03,-2.977972e-02,4.880618e-04,4.208918e-03,3.478709e-03
1446206227629098,1446206227566598,4.036182e-01,6.218227e-03,-2.722583e-02,5.325144e-04,3.703152e-03,3.942069e-03
1446206227691601,1446206227629098,4.038666e-01,4.170947e-03,-2.464472e-02,1.013520e-04,4.131307e-03,4.013753e-03
1446206227754099,1446206227691601,4.051647e-01,4.924181e-03,-2.064213e-02,-2.382503e-06,3.236156e-03,3.708275e-03
1446206227816601,1446206227754099,4.053984e-01,2.812496e-03,-2.048759e-02,-1.910530e-03,1.612330e-03,3.630114e-03
1446206227879102,1446206227816601,4.089302e-01,-6.191258e-04,-2.084545e-02,-3.025935e-03,-1.053713e-03,3.633048e-03
1446206227941603,1446206227879102,4.098096e-01,2.149798e-03,-2.085210e-02,-1.459014e-03,-3.083078e-03,3.500844e-03
1446206228004105,1446206227941603,4.089438e-01,2.074344e-03,-2.209343e-02,-2.162200e-03,-2.614717e-03,3.065525e-03
1446206228066605,1446206228004105,4.085171e-01,4.560261e-03,-2.187626e-02,3.063569e-04,-3.080599e-03,2.835510e-03
1446206228129106,1446206228066605,4.062634e-01,8.633081e-03,-2.349173e-02,3.491315e-03,-3.129455e-03,2.962653e-03
1446206228191606,1446206228129106,4.086866e-01,1.122962e-02,-2.254026e-02,5.581805e-03,-2.826417e-03,3.240470e-03
1446206228254106,1446206228191606,4.060427e-01,5.888546e-03,-2.246022e-02,-4.189322e-04,-2.673187e-03,3.508224e-03
1446206228316605,1446206228254106,4.054036e-01,-1.633199e-03,-2.207540e-02,-5.951865e-03,-2.538852e-03,3.691320e-03
1446206228379104,1446206228316605,4.031798e-01,-4.183488e-03,-2.419579e-02,-5.284803e-03,-1.710957e-03,3.943651e-03
1446206228441608,1446206228379104,4.005192e-01,-2.310391e-03,-2.713296e-02,-2.577716e-03,2.283208e-04,3.873013e-03
1446206228504105,1446206228441608,3.974716e-01,5.674738e-04,-2.845485e-02,-5.647468e-04,3.654363e-03,3.270871e-03
1446206228566607,1446206228504105,4.011217e-01,8.226448e-03,-2.999468e-02,5.055232e-03,5.542845e-03,2.257677e-03
1446206228629108,1446206228566607,3.972540e-01,1.168071e-02,-2.804213e-02,5.402004e-03,5.704591e-03,2.020489e-03
1446206228691606,1446206228629108,3.993453e-01,7.939904e-03,-2.479895e-02,1.897506e-03,4.776315e-03,2.791104e-03
1446206228754108,1446206228691606,3.999004e-01,2.281229e-03,-2.144687e-02,-7.836862e-04,3.239334e-03,3.945976e-03
1446206228816608,1446206228754108,4.040992e-01,-1.166360e-03,-1.851796e-02,-2.574468e-03,1.473983e-03,3.792034e-03
1446206228879110,1446206228816608,4.020914e-01,-4.746528e-03,-1.820218e-02,-4.348520e-03,-7.723720e-04,3.097236e-03
1446206228941614,1446206228879110,4.056449e-01,-3.273960e-03,-1.681328e-02,-2.789615e-03,-3.264043e-03,1.869975e-03
1446206229004111,1446206228941614,4.063719e-01,4.510258e-05,-1.846396e-02,-4.788722e-04,-5.388261e-03,9.349068e-04
1446206229066615,1446206229004111,4.051174e-01,1.088739e-03,-2.136809e-02,1.276327e-04,-4.274909e-03,7.082738e-04
1446206229129112,1446206229066615,4.018343e-01,2.395234e-03,-2.448120e-02,2.172483e-04,-3.022079e-03,1.479924e-03
1446206229191613,1446206229129112,4.004101e-01,3.126380e-03,-2.574361e-02,1.436716e-03,-1.729619e-03,1.689088e-03
1446206229254114,1446206229191613,3.975127e-01,1.437342e-03,-2.597088e-02,1.866860e-04,-9.528821e-04,1.826831e-03
1446206229316615,1446206229254114,3.965953e-01,-1.809697e-03,-2.617381e-02,-2.481678e-03,4.597069e-05,1.775212e-03
1446206229379116,1446206229316615,3.936321e-01,-2.560261e-03,-2.592271e-02,-2.181643e-03,2.273136e-03,1.737435e-03
1446206229441617,1446206229379116,3.924196e-01,-3.042944e-03,-2.426219e-02,-1.279861e-03,3.411635e-03,1.446038e-03
